[
    {
        "location_type": null,
        "parent_station": null,
        "stop_code": 213,
        "stop_desc": null,
        "stop_id": 213,
        "stop_lat": 41.830218,
        "stop_lon": 12.471487,
        "stop_name": "EUROPA/BOSTON",
        "stop_timezone": null,
        "stop_url": null,
        "wheelchair_boarding": null
    },
    {
        "location_type": null,
        "parent_station": null,
        "stop_code": 4972,
        "stop_desc": null,
        "stop_id": 4972,
        "stop_lat": 41.88469,
        "stop_lon": 12.510405,
        "stop_name": "SAN GIOVANNI (MA-MC)",
        "stop_timezone": null,
        "stop_url": null,
        "wheelchair_boarding": null
    },
    {
        "location_type": null,
        "parent_station": null,
        "stop_code": 4993,
        "stop_desc": null,
        "stop_id": 4993,
        "stop_lat": 41.791317,
        "stop_lon": 12.394597,
        "stop_name": "MASTROIANNI/TARANTO",
        "stop_timezone": null,
        "stop_url": null,
        "wheelchair_boarding": null
    },
    {
        "location_type": null,
        "parent_station": null,
        "stop_code": 5000,
        "stop_desc": null,
        "stop_id": 5000,
        "stop_lat": 41.901297,
        "stop_lon": 12.50042,
        "stop_name": "PIAZZA DEI CINQUECENTO",
        "stop_timezone": null,
        "stop_url": null,
        "wheelchair_boarding": null
    },
    {
        "location_type": null,
        "parent_station": null,
        "stop_code": 5001,
        "stop_desc": null,
        "stop_id": 5001,
        "stop_lat": 41.823818,
        "stop_lon": 12.466082,
        "stop_name": "NERVI/PALAZZO SPORT",
        "stop_timezone": null,
        "stop_url": null,
        "wheelchair_boarding": null
    },
    {
        "location_type": null,
        "parent_station": null,
        "stop_code": 5004,
        "stop_desc": null,
        "stop_id": 5004,
        "stop_lat": 41.83669,
        "stop_lon": 12.47142,
        "stop_name": "AGRICOLTURA",
        "stop_timezone": null,
        "stop_url": null,
        "wheelchair_boarding": null
    },
    {
        "location_type": null,
        "parent_station": null,
        "stop_code": 5015,
        "stop_desc": null,
        "stop_id": 5015,
        "stop_lat": 41.93097,
        "stop_lon": 12.46419,
        "stop_name": "MANCINI",
        "stop_timezone": null,
        "stop_url": null,
        "wheelchair_boarding": null
    },
    {
        "location_type": null,
        "parent_station": null,
        "stop_code": 5016,
        "stop_desc": null,
        "stop_id": 5016,
        "stop_lat": 41.90436,
        "stop_lon": 12.424915,
        "stop_name": "CORNELIA (MA)",
        "stop_timezone": null,
        "stop_url": null,
        "wheelchair_boarding": null
    },
    {
        "location_type": null,
        "parent_station": null,
        "stop_code": 5019,
        "stop_desc": null,
        "stop_id": 5019,
        "stop_lat": 41.84297,
        "stop_lon": 12.584973,
        "stop_name": "ANAGNINA (MA)",
        "stop_timezone": null,
        "stop_url": null,
        "wheelchair_boarding": null
    },
    {
        "location_type": null,
        "parent_station": null,
        "stop_code": 5020,
        "stop_desc": null,
        "stop_id": 5020,
        "stop_lat": 41.866747,
        "stop_lon": 12.536497,
        "stop_name": "ARCO DI TRAVERTINO (MA)",
        "stop_timezone": null,
        "stop_url": null,
        "wheelchair_boarding": null
    },
    {
        "location_type": null,
        "parent_station": null,
        "stop_code": 5021,
        "stop_desc": null,
        "stop_id": 5021,
        "stop_lat": 41.91804,
        "stop_lon": 12.456313,
        "stop_name": "CLODIO",
        "stop_timezone": null,
        "stop_url": null,
        "wheelchair_boarding": null
    },
    {
        "location_type": null,
        "parent_station": null,
        "stop_code": 5022,
        "stop_desc": null,
        "stop_id": 5022,
        "stop_lat": 41.826872,
        "stop_lon": 12.480737,
        "stop_name": "LAURENTINA (MB)",
        "stop_timezone": null,
        "stop_url": null,
        "wheelchair_boarding": null
    },
    {
        "location_type": null,
        "parent_station": null,
        "stop_code": 10002,
        "stop_desc": null,
        "stop_id": 10002,
        "stop_lat": 41.90322,
        "stop_lon": 12.463745,
        "stop_name": "BORGO SANT'ANGELO",
        "stop_timezone": null,
        "stop_url": null,
        "wheelchair_boarding": null
    },
    {
        "location_type": null,
        "parent_station": null,
        "stop_code": 10003,
        "stop_desc": null,
        "stop_id": 10003,
        "stop_lat": 41.76088,
        "stop_lon": 12.494693,
        "stop_name": "CIMITERO LAURENTINO",
        "stop_timezone": null,
        "stop_url": null,
        "wheelchair_boarding": null
    },
    {
        "location_type": null,
        "parent_station": null,
        "stop_code": 10004,
        "stop_desc": null,
        "stop_id": 10004,
        "stop_lat": 41.88602,
        "stop_lon": 12.510527,
        "stop_name": "SAN GIOVANNI (MA - MC)",
        "stop_timezone": null,
        "stop_url": null,
        "wheelchair_boarding": null
    },
    {
        "location_type": null,
        "parent_station": null,
        "stop_code": 10017,
        "stop_desc": null,
        "stop_id": 10017,
        "stop_lat": 41.823203,
        "stop_lon": 12.470102,
        "stop_name": "UMANESIMO/URALI",
        "stop_timezone": null,
        "stop_url": null,
        "wheelchair_boarding": null
    },
    {
        "location_type": null,
        "parent_station": null,
        "stop_code": 20003,
        "stop_desc": null,
        "stop_id": 20003,
        "stop_lat": 41.867588,
        "stop_lon": 12.689112,
        "stop_name": "ROCCA CENCIA/GIOIOSA JONICA",
        "stop_timezone": null,
        "stop_url": null,
        "wheelchair_boarding": null
    },
    {
        "location_type": null,
        "parent_station": null,
        "stop_code": 20006,
        "stop_desc": null,
        "stop_id": 20006,
        "stop_lat": 41.737617,
        "stop_lon": 12.3725,
        "stop_name": "CASTEL PORZIANO/MARIANI",
        "stop_timezone": null,
        "stop_url": null,
        "wheelchair_boarding": null
    },
    {
        "location_type": null,
        "parent_station": null,
        "stop_code": 20014,
        "stop_desc": null,
        "stop_id": 20014,
        "stop_lat": 41.886405,
        "stop_lon": 12.554405,
        "stop_name": "GORDIANI/AMALFI",
        "stop_timezone": null,
        "stop_url": null,
        "wheelchair_boarding": null
    },
    {
        "location_type": null,
        "parent_station": null,
        "stop_code": 20018,
        "stop_desc": null,
        "stop_id": 20018,
        "stop_lat": 41.760575,
        "stop_lon": 12.48906,
        "stop_name": "CIMITERO LAURENTINO",
        "stop_timezone": null,
        "stop_url": null,
        "wheelchair_boarding": null
    },
    {
        "location_type": null,
        "parent_station": null,
        "stop_code": 20022,
        "stop_desc": null,
        "stop_id": 20022,
        "stop_lat": 41.937267,
        "stop_lon": 12.378068,
        "stop_name": "SELVA CANDIDA/ROSSO E.",
        "stop_timezone": null,
        "stop_url": null,
        "wheelchair_boarding": null
    },
    {
        "location_type": null,
        "parent_station": null,
        "stop_code": 20027,
        "stop_desc": null,
        "stop_id": 20027,
        "stop_lat": 41.79145,
        "stop_lon": 12.329547,
        "stop_name": "TRADATE/BAREGGIO",
        "stop_timezone": null,
        "stop_url": null,
        "wheelchair_boarding": null
    },
    {
        "location_type": null,
        "parent_station": null,
        "stop_code": 20028,
        "stop_desc": null,
        "stop_id": 20028,
        "stop_lat": 41.932145,
        "stop_lon": 12.581155,
        "stop_name": "TIBURTINA/LINO DA PARMA",
        "stop_timezone": null,
        "stop_url": null,
        "wheelchair_boarding": null
    },
    {
        "location_type": null,
        "parent_station": null,
        "stop_code": 20029,
        "stop_desc": null,
        "stop_id": 20029,
        "stop_lat": 41.932735,
        "stop_lon": 12.588337,
        "stop_name": "TIBURTINA/TOR CERVARA",
        "stop_timezone": null,
        "stop_url": null,
        "wheelchair_boarding": null
    },
    {
        "location_type": null,
        "parent_station": null,
        "stop_code": 20030,
        "stop_desc": null,
        "stop_id": 20030,
        "stop_lat": 41.932957,
        "stop_lon": 12.591,
        "stop_name": "TIBURTINA/TIVOLI",
        "stop_timezone": null,
        "stop_url": null,
        "wheelchair_boarding": null
    },
    {
        "location_type": null,
        "parent_station": null,
        "stop_code": 20033,
        "stop_desc": null,
        "stop_id": 20033,
        "stop_lat": 42.008468,
        "stop_lon": 12.493493,
        "stop_name": "CIMITERO/V.LE UFFICI",
        "stop_timezone": null,
        "stop_url": null,
        "wheelchair_boarding": null
    },
    {
        "location_type": null,
        "parent_station": null,
        "stop_code": 20037,
        "stop_desc": null,
        "stop_id": 20037,
        "stop_lat": 41.932185,
        "stop_lon": 12.376708,
        "stop_name": "SELVA CANDIDA/BASALUZZO",
        "stop_timezone": null,
        "stop_url": null,
        "wheelchair_boarding": null
    },
    {
        "location_type": null,
        "parent_station": null,
        "stop_code": 20038,
        "stop_desc": null,
        "stop_id": 20038,
        "stop_lat": 41.932073,
        "stop_lon": 12.376887,
        "stop_name": "SELVA CANDIDA/BASALUZZO",
        "stop_timezone": null,
        "stop_url": null,
        "wheelchair_boarding": null
    },
    {
        "location_type": null,
        "parent_station": null,
        "stop_code": 20040,
        "stop_desc": null,
        "stop_id": 20040,
        "stop_lat": 41.87523,
        "stop_lon": 12.4548,
        "stop_name": "DONNA OLIMPIA/FIORINI",
        "stop_timezone": null,
        "stop_url": null,
        "wheelchair_boarding": null
    },
    {
        "location_type": null,
        "parent_station": null,
        "stop_code": 20041,
        "stop_desc": null,
        "stop_id": 20041,
        "stop_lat": 41.822533,
        "stop_lon": 12.47261,
        "stop_name": "UMANESIMO/S.EUGENIO (H)",
        "stop_timezone": null,
        "stop_url": null,
        "wheelchair_boarding": null
    },
    {
        "location_type": null,
        "parent_station": null,
        "stop_code": 20042,
        "stop_desc": null,
        "stop_id": 20042,
        "stop_lat": 41.787812,
        "stop_lon": 12.49019,
        "stop_name": "BRUNETTI",
        "stop_timezone": null,
        "stop_url": null,
        "wheelchair_boarding": null
    },
    {
        "location_type": null,
        "parent_station": null,
        "stop_code": 20043,
        "stop_desc": null,
        "stop_id": 20043,
        "stop_lat": 41.850732,
        "stop_lon": 12.579953,
        "stop_name": "TORRE SPACCATA/MEATTINI",
        "stop_timezone": null,
        "stop_url": null,
        "wheelchair_boarding": null
    },
    {
        "location_type": null,
        "parent_station": null,
        "stop_code": 20044,
        "stop_desc": null,
        "stop_id": 20044,
        "stop_lat": 41.850215,
        "stop_lon": 12.580772,
        "stop_name": "MEATTINI",
        "stop_timezone": null,
        "stop_url": null,
        "wheelchair_boarding": null
    },
    {
        "location_type": null,
        "parent_station": null,
        "stop_code": 20045,
        "stop_desc": null,
        "stop_id": 20045,
        "stop_lat": 41.849385,
        "stop_lon": 12.578842,
        "stop_name": "GIULIOLI",
        "stop_timezone": null,
        "stop_url": null,
        "wheelchair_boarding": null
    },
    {
        "location_type": null,
        "parent_station": null,
        "stop_code": 20078,
        "stop_desc": null,
        "stop_id": 20078,
        "stop_lat": 41.934803,
        "stop_lon": 12.495748,
        "stop_name": "MOSCHEA/FORTE ANTENNE",
        "stop_timezone": null,
        "stop_url": null,
        "wheelchair_boarding": null
    },
    {
        "location_type": null,
        "parent_station": null,
        "stop_code": 20079,
        "stop_desc": null,
        "stop_id": 20079,
        "stop_lat": 41.92746,
        "stop_lon": 12.4819,
        "stop_name": "SACRO CUORE DI MARIA/EUCLIDE",
        "stop_timezone": null,
        "stop_url": null,
        "wheelchair_boarding": null
    },
    {
        "location_type": null,
        "parent_station": null,
        "stop_code": 20083,
        "stop_desc": null,
        "stop_id": 20083,
        "stop_lat": 41.871407,
        "stop_lon": 12.467342,
        "stop_name": "VOLPATO/RADIO",
        "stop_timezone": null,
        "stop_url": null,
        "wheelchair_boarding": null
    },
    {
        "location_type": null,
        "parent_station": null,
        "stop_code": 20084,
        "stop_desc": null,
        "stop_id": 20084,
        "stop_lat": 41.87188,
        "stop_lon": 12.467523,
        "stop_name": "VOLPATO/RADIO",
        "stop_timezone": null,
        "stop_url": null,
        "wheelchair_boarding": null
    },
    {
        "location_type": null,
        "parent_station": null,
        "stop_code": 20097,
        "stop_desc": null,
        "stop_id": 20097,
        "stop_lat": 41.978962,
        "stop_lon": 12.509112,
        "stop_name": "INCISA VAL D'ARNO",
        "stop_timezone": null,
        "stop_url": null,
        "wheelchair_boarding": null
    },
    {
        "location_type": null,
        "parent_station": null,
        "stop_code": 20098,
        "stop_desc": null,
        "stop_id": 20098,
        "stop_lat": 41.979123,
        "stop_lon": 12.509057,
        "stop_name": "INCISA VAL D'ARNO",
        "stop_timezone": null,
        "stop_url": null,
        "wheelchair_boarding": null
    },
    {
        "location_type": null,
        "parent_station": null,
        "stop_code": 20103,
        "stop_desc": null,
        "stop_id": 20103,
        "stop_lat": 41.902463,
        "stop_lon": 12.44124,
        "stop_name": "EMO/DI BARTOLO",
        "stop_timezone": null,
        "stop_url": null,
        "wheelchair_boarding": null
    },
    {
        "location_type": null,
        "parent_station": null,
        "stop_code": 20113,
        "stop_desc": null,
        "stop_id": 20113,
        "stop_lat": 41.918552,
        "stop_lon": 12.538215,
        "stop_name": "MONTI TIBURTINI/PERTINI (H)",
        "stop_timezone": null,
        "stop_url": null,
        "wheelchair_boarding": null
    },
    {
        "location_type": null,
        "parent_station": null,
        "stop_code": 20114,
        "stop_desc": null,
        "stop_id": 20114,
        "stop_lat": 41.919167,
        "stop_lon": 12.537018,
        "stop_name": "MONTI TIBURTINI/PERTINI (H)",
        "stop_timezone": null,
        "stop_url": null,
        "wheelchair_boarding": null
    },
    {
        "location_type": null,
        "parent_station": null,
        "stop_code": 20115,
        "stop_desc": null,
        "stop_id": 20115,
        "stop_lat": 41.93748,
        "stop_lon": 12.618545,
        "stop_name": "TIBURTINA/MOROLO",
        "stop_timezone": null,
        "stop_url": null,
        "wheelchair_boarding": null
    },
    {
        "location_type": null,
        "parent_station": null,
        "stop_code": 20116,
        "stop_desc": null,
        "stop_id": 20116,
        "stop_lat": 41.937958,
        "stop_lon": 12.620367,
        "stop_name": "TIBURTINA/SALONE",
        "stop_timezone": null,
        "stop_url": null,
        "wheelchair_boarding": null
    },
    {
        "location_type": null,
        "parent_station": null,
        "stop_code": 20118,
        "stop_desc": null,
        "stop_id": 20118,
        "stop_lat": 42.000062,
        "stop_lon": 12.493907,
        "stop_name": "STAZIONE PRIMA PORTA",
        "stop_timezone": null,
        "stop_url": null,
        "wheelchair_boarding": null
    },
    {
        "location_type": null,
        "parent_station": null,
        "stop_code": 20119,
        "stop_desc": null,
        "stop_id": 20119,
        "stop_lat": 41.862505,
        "stop_lon": 12.56732,
        "stop_name": "SANTI ROMANO",
        "stop_timezone": null,
        "stop_url": null,
        "wheelchair_boarding": null
    },
    {
        "location_type": null,
        "parent_station": null,
        "stop_code": 20120,
        "stop_desc": null,
        "stop_id": 20120,
        "stop_lat": 41.864312,
        "stop_lon": 12.558492,
        "stop_name": "PAPIRIA/AEROPORTO",
        "stop_timezone": null,
        "stop_url": null,
        "wheelchair_boarding": null
    },
    {
        "location_type": null,
        "parent_station": null,
        "stop_code": 20121,
        "stop_desc": null,
        "stop_id": 20121,
        "stop_lat": 41.882987,
        "stop_lon": 12.34098,
        "stop_name": "AURELIA/PERSICHETTI",
        "stop_timezone": null,
        "stop_url": null,
        "wheelchair_boarding": null
    },
    {
        "location_type": null,
        "parent_station": null,
        "stop_code": 20124,
        "stop_desc": null,
        "stop_id": 20124,
        "stop_lat": 41.887625,
        "stop_lon": 12.466643,
        "stop_name": "GARIBALDI/FABRIZI",
        "stop_timezone": null,
        "stop_url": null,
        "wheelchair_boarding": null
    },
    {
        "location_type": null,
        "parent_station": null,
        "stop_code": 20128,
        "stop_desc": null,
        "stop_id": 20128,
        "stop_lat": 41.892407,
        "stop_lon": 12.550908,
        "stop_name": "PARTENOPE/IRPINIA",
        "stop_timezone": null,
        "stop_url": null,
        "wheelchair_boarding": null
    },
    {
        "location_type": null,
        "parent_station": null,
        "stop_code": 20130,
        "stop_desc": null,
        "stop_id": 20130,
        "stop_lat": 41.845888,
        "stop_lon": 12.5797,
        "stop_name": "TUSCOLANA/CENTRALE ENEL",
        "stop_timezone": null,
        "stop_url": null,
        "wheelchair_boarding": null
    },
    {
        "location_type": null,
        "parent_station": null,
        "stop_code": 20131,
        "stop_desc": null,
        "stop_id": 20131,
        "stop_lat": 41.981913,
        "stop_lon": 12.56461,
        "stop_name": "TOR S. GIOVANNI/BARAVALLE",
        "stop_timezone": null,
        "stop_url": null,
        "wheelchair_boarding": null
    },
    {
        "location_type": null,
        "parent_station": null,
        "stop_code": 20132,
        "stop_desc": null,
        "stop_id": 20132,
        "stop_lat": 41.981878,
        "stop_lon": 12.564248,
        "stop_name": "TOR S. GIOVANNI/BARAVALLE",
        "stop_timezone": null,
        "stop_url": null,
        "wheelchair_boarding": null
    },
    {
        "location_type": null,
        "parent_station": null,
        "stop_code": 20133,
        "stop_desc": null,
        "stop_id": 20133,
        "stop_lat": 41.92944,
        "stop_lon": 12.577097,
        "stop_name": "TIBURTINA/NASINI",
        "stop_timezone": null,
        "stop_url": null,
        "wheelchair_boarding": null
    },
    {
        "location_type": null,
        "parent_station": null,
        "stop_code": 20138,
        "stop_desc": null,
        "stop_id": 20138,
        "stop_lat": 41.932142,
        "stop_lon": 12.599452,
        "stop_name": "PESENTI/TIBURTINA",
        "stop_timezone": null,
        "stop_url": null,
        "wheelchair_boarding": null
    },
    {
        "location_type": null,
        "parent_station": null,
        "stop_code": 20141,
        "stop_desc": null,
        "stop_id": 20141,
        "stop_lat": 41.937405,
        "stop_lon": 12.618892,
        "stop_name": "TIBURTINA/MOROLO",
        "stop_timezone": null,
        "stop_url": null,
        "wheelchair_boarding": null
    },
    {
        "location_type": null,
        "parent_station": null,
        "stop_code": 20142,
        "stop_desc": null,
        "stop_id": 20142,
        "stop_lat": 41.933758,
        "stop_lon": 12.603652,
        "stop_name": "TIBURTINA/CASTEL MADAMA",
        "stop_timezone": null,
        "stop_url": null,
        "wheelchair_boarding": null
    },
    {
        "location_type": null,
        "parent_station": null,
        "stop_code": 20143,
        "stop_desc": null,
        "stop_id": 20143,
        "stop_lat": 41.932852,
        "stop_lon": 12.597975,
        "stop_name": "TIBURTINA/PESENTI",
        "stop_timezone": null,
        "stop_url": null,
        "wheelchair_boarding": null
    },
    {
        "location_type": null,
        "parent_station": null,
        "stop_code": 20147,
        "stop_desc": null,
        "stop_id": 20147,
        "stop_lat": 41.932717,
        "stop_lon": 12.586058,
        "stop_name": "TIBURTINA/TOR CERVARA",
        "stop_timezone": null,
        "stop_url": null,
        "wheelchair_boarding": null
    },
    {
        "location_type": null,
        "parent_station": null,
        "stop_code": 20152,
        "stop_desc": null,
        "stop_id": 20152,
        "stop_lat": 41.929788,
        "stop_lon": 12.57743,
        "stop_name": "TIBURTINA/NASINI",
        "stop_timezone": null,
        "stop_url": null,
        "wheelchair_boarding": null
    },
    {
        "location_type": null,
        "parent_station": null,
        "stop_code": 20159,
        "stop_desc": null,
        "stop_id": 20159,
        "stop_lat": 41.957862,
        "stop_lon": 12.557417,
        "stop_name": "CASAL BOCCONE/ALMAVIVA",
        "stop_timezone": null,
        "stop_url": null,
        "wheelchair_boarding": null
    },
    {
        "location_type": null,
        "parent_station": null,
        "stop_code": 20171,
        "stop_desc": null,
        "stop_id": 20171,
        "stop_lat": 41.95223,
        "stop_lon": 12.559133,
        "stop_name": "CASAL BOCCONE/OJETTI",
        "stop_timezone": null,
        "stop_url": null,
        "wheelchair_boarding": null
    },
    {
        "location_type": null,
        "parent_station": null,
        "stop_code": 20178,
        "stop_desc": null,
        "stop_id": 20178,
        "stop_lat": 41.957892,
        "stop_lon": 12.557007,
        "stop_name": "CASAL BOCCONE/ALMAVIVA",
        "stop_timezone": null,
        "stop_url": null,
        "wheelchair_boarding": null
    },
    {
        "location_type": null,
        "parent_station": null,
        "stop_code": 20181,
        "stop_desc": null,
        "stop_id": 20181,
        "stop_lat": 41.795488,
        "stop_lon": 12.535373,
        "stop_name": "FIORANELLO/ARDEATINA",
        "stop_timezone": null,
        "stop_url": null,
        "wheelchair_boarding": null
    },
    {
        "location_type": null,
        "parent_station": null,
        "stop_code": 20182,
        "stop_desc": null,
        "stop_id": 20182,
        "stop_lat": 41.794303,
        "stop_lon": 12.537462,
        "stop_name": "FIORANELLO/CIVICO 186",
        "stop_timezone": null,
        "stop_url": null,
        "wheelchair_boarding": null
    },
    {
        "location_type": null,
        "parent_station": null,
        "stop_code": 20199,
        "stop_desc": null,
        "stop_id": 20199,
        "stop_lat": 41.931575,
        "stop_lon": 12.57986,
        "stop_name": "TIBURTINA/LINO DA PARMA",
        "stop_timezone": null,
        "stop_url": null,
        "wheelchair_boarding": null
    },
    {
        "location_type": null,
        "parent_station": null,
        "stop_code": 20203,
        "stop_desc": null,
        "stop_id": 20203,
        "stop_lat": 41.948023,
        "stop_lon": 12.392373,
        "stop_name": "PALMAROLA NUOVA",
        "stop_timezone": null,
        "stop_url": null,
        "wheelchair_boarding": null
    },
    {
        "location_type": null,
        "parent_station": null,
        "stop_code": 20215,
        "stop_desc": null,
        "stop_id": 20215,
        "stop_lat": 41.885855,
        "stop_lon": 12.469258,
        "stop_name": "MOROSINI E./NUOVO REGINA MARGHERITA (H)",
        "stop_timezone": null,
        "stop_url": null,
        "wheelchair_boarding": null
    },
    {
        "location_type": null,
        "parent_station": null,
        "stop_code": 20217,
        "stop_desc": null,
        "stop_id": 20217,
        "stop_lat": 41.91797,
        "stop_lon": 12.520187,
        "stop_name": "XXI APRILE/NARDINI",
        "stop_timezone": null,
        "stop_url": null,
        "wheelchair_boarding": null
    },
    {
        "location_type": null,
        "parent_station": null,
        "stop_code": 20265,
        "stop_desc": null,
        "stop_id": 20265,
        "stop_lat": 41.918898,
        "stop_lon": 12.461548,
        "stop_name": "OSLAVIA/BAINSIZZA",
        "stop_timezone": null,
        "stop_url": null,
        "wheelchair_boarding": null
    },
    {
        "location_type": null,
        "parent_station": null,
        "stop_code": 20295,
        "stop_desc": null,
        "stop_id": 20295,
        "stop_lat": 41.888047,
        "stop_lon": 12.467605,
        "stop_name": "MAMELI",
        "stop_timezone": null,
        "stop_url": null,
        "wheelchair_boarding": null
    },
    {
        "location_type": null,
        "parent_station": null,
        "stop_code": 20296,
        "stop_desc": null,
        "stop_id": 20296,
        "stop_lat": 41.888467,
        "stop_lon": 12.466005,
        "stop_name": "GARIBALDI/IACOBUCCI",
        "stop_timezone": null,
        "stop_url": null,
        "wheelchair_boarding": null
    },
    {
        "location_type": null,
        "parent_station": null,
        "stop_code": 20300,
        "stop_desc": null,
        "stop_id": 20300,
        "stop_lat": 41.907878,
        "stop_lon": 12.662423,
        "stop_name": "CHIODELLI/CORBELLINI",
        "stop_timezone": null,
        "stop_url": null,
        "wheelchair_boarding": null
    },
    {
        "location_type": null,
        "parent_station": null,
        "stop_code": 20308,
        "stop_desc": null,
        "stop_id": 20308,
        "stop_lat": 41.93647,
        "stop_lon": 12.425345,
        "stop_name": "ACQUEDOTTO DEL PESCHIERA",
        "stop_timezone": null,
        "stop_url": null,
        "wheelchair_boarding": null
    },
    {
        "location_type": null,
        "parent_station": null,
        "stop_code": 20313,
        "stop_desc": null,
        "stop_id": 20313,
        "stop_lat": 41.829032,
        "stop_lon": 12.471233,
        "stop_name": "BOSTON",
        "stop_timezone": null,
        "stop_url": null,
        "wheelchair_boarding": null
    },
    {
        "location_type": null,
        "parent_station": null,
        "stop_code": 20323,
        "stop_desc": null,
        "stop_id": 20323,
        "stop_lat": 41.888388,
        "stop_lon": 12.467558,
        "stop_name": "MAMELI",
        "stop_timezone": null,
        "stop_url": null,
        "wheelchair_boarding": null
    },
    {
        "location_type": null,
        "parent_station": null,
        "stop_code": 20332,
        "stop_desc": null,
        "stop_id": 20332,
        "stop_lat": 41.932,
        "stop_lon": 12.643035,
        "stop_name": "CIVITACAMPOMARANO/CASE ROSSE",
        "stop_timezone": null,
        "stop_url": null,
        "wheelchair_boarding": null
    },
    {
        "location_type": null,
        "parent_station": null,
        "stop_code": 20353,
        "stop_desc": null,
        "stop_id": 20353,
        "stop_lat": 41.789932,
        "stop_lon": 12.407785,
        "stop_name": "S. ARCANGELO DI ROMAGNA",
        "stop_timezone": null,
        "stop_url": null,
        "wheelchair_boarding": null
    },
    {
        "location_type": null,
        "parent_station": null,
        "stop_code": 20369,
        "stop_desc": null,
        "stop_id": 20369,
        "stop_lat": 41.764165,
        "stop_lon": 12.498075,
        "stop_name": "LAURENTINA/CIMITERO LAURENTINO",
        "stop_timezone": null,
        "stop_url": null,
        "wheelchair_boarding": null
    },
    {
        "location_type": null,
        "parent_station": null,
        "stop_code": 20370,
        "stop_desc": null,
        "stop_id": 20370,
        "stop_lat": 41.76126,
        "stop_lon": 12.50005,
        "stop_name": "LAURENTINA/MANDRIOLA",
        "stop_timezone": null,
        "stop_url": null,
        "wheelchair_boarding": null
    },
    {
        "location_type": null,
        "parent_station": null,
        "stop_code": 20374,
        "stop_desc": null,
        "stop_id": 20374,
        "stop_lat": 41.745728,
        "stop_lon": 12.503467,
        "stop_name": "LAURENTINA/CIVICO 1569",
        "stop_timezone": null,
        "stop_url": null,
        "wheelchair_boarding": null
    },
    {
        "location_type": null,
        "parent_station": null,
        "stop_code": 20375,
        "stop_desc": null,
        "stop_id": 20375,
        "stop_lat": 41.763713,
        "stop_lon": 12.499112,
        "stop_name": "LAURENTINA/CIMITERO LAURENTINO",
        "stop_timezone": null,
        "stop_url": null,
        "wheelchair_boarding": null
    },
    {
        "location_type": null,
        "parent_station": null,
        "stop_code": 20380,
        "stop_desc": null,
        "stop_id": 20380,
        "stop_lat": 41.748932,
        "stop_lon": 12.501543,
        "stop_name": "LAURENTINA/BOSCOTRECASE",
        "stop_timezone": null,
        "stop_url": null,
        "wheelchair_boarding": null
    },
    {
        "location_type": null,
        "parent_station": null,
        "stop_code": 20388,
        "stop_desc": null,
        "stop_id": 20388,
        "stop_lat": 41.857698,
        "stop_lon": 12.376755,
        "stop_name": "G.R.A.",
        "stop_timezone": null,
        "stop_url": null,
        "wheelchair_boarding": null
    },
    {
        "location_type": null,
        "parent_station": null,
        "stop_code": 20398,
        "stop_desc": null,
        "stop_id": 20398,
        "stop_lat": 41.899742,
        "stop_lon": 12.389362,
        "stop_name": "CORNELIA/VILLATA",
        "stop_timezone": null,
        "stop_url": null,
        "wheelchair_boarding": null
    },
    {
        "location_type": null,
        "parent_station": null,
        "stop_code": 20409,
        "stop_desc": null,
        "stop_id": 20409,
        "stop_lat": 41.890203,
        "stop_lon": 12.551117,
        "stop_name": "TEANO (MC)",
        "stop_timezone": null,
        "stop_url": null,
        "wheelchair_boarding": null
    },
    {
        "location_type": null,
        "parent_station": null,
        "stop_code": 20424,
        "stop_desc": null,
        "stop_id": 20424,
        "stop_lat": 41.921553,
        "stop_lon": 12.489655,
        "stop_name": "PITAGORA",
        "stop_timezone": null,
        "stop_url": null,
        "wheelchair_boarding": null
    },
    {
        "location_type": null,
        "parent_station": null,
        "stop_code": 20435,
        "stop_desc": null,
        "stop_id": 20435,
        "stop_lat": 41.933012,
        "stop_lon": 12.478297,
        "stop_name": "VENEZUELA/INDIA",
        "stop_timezone": null,
        "stop_url": null,
        "wheelchair_boarding": null
    },
    {
        "location_type": null,
        "parent_station": null,
        "stop_code": 20443,
        "stop_desc": null,
        "stop_id": 20443,
        "stop_lat": 41.934308,
        "stop_lon": 12.608055,
        "stop_name": "TIBURTINA/ZOE FONTANA",
        "stop_timezone": null,
        "stop_url": null,
        "wheelchair_boarding": null
    },
    {
        "location_type": null,
        "parent_station": null,
        "stop_code": 20488,
        "stop_desc": null,
        "stop_id": 20488,
        "stop_lat": 41.940428,
        "stop_lon": 12.566968,
        "stop_name": "BUAZZELLI/FABBRI",
        "stop_timezone": null,
        "stop_url": null,
        "wheelchair_boarding": null
    },
    {
        "location_type": null,
        "parent_station": null,
        "stop_code": 20501,
        "stop_desc": null,
        "stop_id": 20501,
        "stop_lat": 41.869437,
        "stop_lon": 12.631973,
        "stop_name": "CAMBELLOTTI",
        "stop_timezone": null,
        "stop_url": null,
        "wheelchair_boarding": null
    },
    {
        "location_type": null,
        "parent_station": null,
        "stop_code": 30000,
        "stop_desc": null,
        "stop_id": 30000,
        "stop_lat": 41.891117,
        "stop_lon": 12.515113,
        "stop_name": "P.ZA DI PORTA MAGGIORE",
        "stop_timezone": null,
        "stop_url": null,
        "wheelchair_boarding": null
    },
    {
        "location_type": null,
        "parent_station": null,
        "stop_code": 30001,
        "stop_desc": null,
        "stop_id": 30001,
        "stop_lat": 41.892433,
        "stop_lon": 12.541187,
        "stop_name": "L.GO PRENESTE",
        "stop_timezone": null,
        "stop_url": null,
        "wheelchair_boarding": null
    },
    {
        "location_type": null,
        "parent_station": null,
        "stop_code": 30002,
        "stop_desc": null,
        "stop_id": 30002,
        "stop_lat": 41.877022,
        "stop_lon": 12.442065,
        "stop_name": "GIANICOLENSE/COLLI PORTUENSI",
        "stop_timezone": null,
        "stop_url": null,
        "wheelchair_boarding": null
    },
    {
        "location_type": null,
        "parent_station": null,
        "stop_code": 30003,
        "stop_desc": null,
        "stop_id": 30003,
        "stop_lat": 41.891933,
        "stop_lon": 12.540848,
        "stop_name": "L.GO PRENESTE",
        "stop_timezone": null,
        "stop_url": null,
        "wheelchair_boarding": null
    },
    {
        "location_type": null,
        "parent_station": null,
        "stop_code": 30516,
        "stop_desc": null,
        "stop_id": 30516,
        "stop_lat": 41.736072,
        "stop_lon": 12.272743,
        "stop_name": "SIRENE",
        "stop_timezone": null,
        "stop_url": null,
        "wheelchair_boarding": null
    },
    {
        "location_type": null,
        "parent_station": null,
        "stop_code": 30547,
        "stop_desc": null,
        "stop_id": 30547,
        "stop_lat": 41.933813,
        "stop_lon": 12.60502,
        "stop_name": "TIBURTINA/CASTEL MADAMA",
        "stop_timezone": null,
        "stop_url": null,
        "wheelchair_boarding": null
    },
    {
        "location_type": null,
        "parent_station": null,
        "stop_code": 30568,
        "stop_desc": null,
        "stop_id": 30568,
        "stop_lat": 41.88763,
        "stop_lon": 12.537542,
        "stop_name": "S. LUCA EVANGELISTA",
        "stop_timezone": null,
        "stop_url": null,
        "wheelchair_boarding": null
    },
    {
        "location_type": null,
        "parent_station": null,
        "stop_code": 30569,
        "stop_desc": null,
        "stop_id": 30569,
        "stop_lat": 41.737715,
        "stop_lon": 12.270582,
        "stop_name": "ISOLE DEL CAPO VERDE",
        "stop_timezone": null,
        "stop_url": null,
        "wheelchair_boarding": null
    },
    {
        "location_type": null,
        "parent_station": null,
        "stop_code": 30609,
        "stop_desc": null,
        "stop_id": 30609,
        "stop_lat": 41.718005,
        "stop_lon": 12.3072,
        "stop_name": "AQUILONE",
        "stop_timezone": null,
        "stop_url": null,
        "wheelchair_boarding": null
    },
    {
        "location_type": null,
        "parent_station": null,
        "stop_code": 30610,
        "stop_desc": null,
        "stop_id": 30610,
        "stop_lat": 41.71709,
        "stop_lon": 12.310278,
        "stop_name": "AQUILONE/VIVALDI",
        "stop_timezone": null,
        "stop_url": null,
        "wheelchair_boarding": null
    },
    {
        "location_type": null,
        "parent_station": null,
        "stop_code": 30632,
        "stop_desc": null,
        "stop_id": 30632,
        "stop_lat": 41.8259,
        "stop_lon": 12.497797,
        "stop_name": "VIGNA MURATA/GROTTE D'ARCACCIO",
        "stop_timezone": null,
        "stop_url": null,
        "wheelchair_boarding": null
    },
    {
        "location_type": null,
        "parent_station": null,
        "stop_code": 30633,
        "stop_desc": null,
        "stop_id": 30633,
        "stop_lat": 41.826477,
        "stop_lon": 12.497242,
        "stop_name": "VIGNA MURATA/GROTTE D'ARCACCIO",
        "stop_timezone": null,
        "stop_url": null,
        "wheelchair_boarding": null
    },
    {
        "location_type": null,
        "parent_station": null,
        "stop_code": 30647,
        "stop_desc": null,
        "stop_id": 30647,
        "stop_lat": 41.925078,
        "stop_lon": 12.57252,
        "stop_name": "REBIBBIA (MB)",
        "stop_timezone": null,
        "stop_url": null,
        "wheelchair_boarding": null
    },
    {
        "location_type": null,
        "parent_station": null,
        "stop_code": 30648,
        "stop_desc": null,
        "stop_id": 30648,
        "stop_lat": 41.925027,
        "stop_lon": 12.572432,
        "stop_name": "REBIBBIA (MB)",
        "stop_timezone": null,
        "stop_url": null,
        "wheelchair_boarding": null
    },
    {
        "location_type": null,
        "parent_station": null,
        "stop_code": 30649,
        "stop_desc": null,
        "stop_id": 30649,
        "stop_lat": 41.925455,
        "stop_lon": 12.573367,
        "stop_name": "REBIBBIA (MB)",
        "stop_timezone": null,
        "stop_url": null,
        "wheelchair_boarding": null
    },
    {
        "location_type": null,
        "parent_station": null,
        "stop_code": 30654,
        "stop_desc": null,
        "stop_id": 30654,
        "stop_lat": 41.864708,
        "stop_lon": 12.457732,
        "stop_name": "PORTUENSE/VIGNA PIA",
        "stop_timezone": null,
        "stop_url": null,
        "wheelchair_boarding": null
    },
    {
        "location_type": null,
        "parent_station": null,
        "stop_code": 30706,
        "stop_desc": null,
        "stop_id": 30706,
        "stop_lat": 41.930715,
        "stop_lon": 12.609245,
        "stop_name": "ZOE FONTANA/MONTE FLAVIO",
        "stop_timezone": null,
        "stop_url": null,
        "wheelchair_boarding": null
    },
    {
        "location_type": null,
        "parent_station": null,
        "stop_code": 30722,
        "stop_desc": null,
        "stop_id": 30722,
        "stop_lat": 41.810685,
        "stop_lon": 12.513985,
        "stop_name": "CECCHIGNOLA NUOVA/KOBLER",
        "stop_timezone": null,
        "stop_url": null,
        "wheelchair_boarding": null
    },
    {
        "location_type": null,
        "parent_station": null,
        "stop_code": 30723,
        "stop_desc": null,
        "stop_id": 30723,
        "stop_lat": 41.81097,
        "stop_lon": 12.513993,
        "stop_name": "CECCHIGNOLA NUOVA/KOBLER",
        "stop_timezone": null,
        "stop_url": null,
        "wheelchair_boarding": null
    },
    {
        "location_type": null,
        "parent_station": null,
        "stop_code": 30724,
        "stop_desc": null,
        "stop_id": 30724,
        "stop_lat": 41.813263,
        "stop_lon": 12.5139,
        "stop_name": "CECCHIGNOLA NUOVA",
        "stop_timezone": null,
        "stop_url": null,
        "wheelchair_boarding": null
    },
    {
        "location_type": null,
        "parent_station": null,
        "stop_code": 30725,
        "stop_desc": null,
        "stop_id": 30725,
        "stop_lat": 41.813125,
        "stop_lon": 12.51378,
        "stop_name": "CECCHIGNOLA NUOVA",
        "stop_timezone": null,
        "stop_url": null,
        "wheelchair_boarding": null
    },
    {
        "location_type": null,
        "parent_station": null,
        "stop_code": 30728,
        "stop_desc": null,
        "stop_id": 30728,
        "stop_lat": 41.749055,
        "stop_lon": 12.374798,
        "stop_name": "CILEA/SCUOLA",
        "stop_timezone": null,
        "stop_url": null,
        "wheelchair_boarding": null
    },
    {
        "location_type": null,
        "parent_station": null,
        "stop_code": 30729,
        "stop_desc": null,
        "stop_id": 30729,
        "stop_lat": 41.895565,
        "stop_lon": 12.480603,
        "stop_name": "ASTALLI/VENEZIA",
        "stop_timezone": null,
        "stop_url": null,
        "wheelchair_boarding": null
    },
    {
        "location_type": null,
        "parent_station": null,
        "stop_code": 30733,
        "stop_desc": null,
        "stop_id": 30733,
        "stop_lat": 41.925053,
        "stop_lon": 12.572962,
        "stop_name": "TIBURTINA/RIPA TEATINA",
        "stop_timezone": null,
        "stop_url": null,
        "wheelchair_boarding": null
    },
    {
        "location_type": null,
        "parent_station": null,
        "stop_code": 30750,
        "stop_desc": null,
        "stop_id": 30750,
        "stop_lat": 41.779003,
        "stop_lon": 12.35545,
        "stop_name": "PREVIATI",
        "stop_timezone": null,
        "stop_url": null,
        "wheelchair_boarding": null
    },
    {
        "location_type": null,
        "parent_station": null,
        "stop_code": 70002,
        "stop_desc": null,
        "stop_id": 70002,
        "stop_lat": 41.954902,
        "stop_lon": 12.484548,
        "stop_name": "FLAMINIA/CANTALUPO",
        "stop_timezone": null,
        "stop_url": null,
        "wheelchair_boarding": null
    },
    {
        "location_type": null,
        "parent_station": null,
        "stop_code": 70003,
        "stop_desc": null,
        "stop_id": 70003,
        "stop_lat": 41.951973,
        "stop_lon": 12.484668,
        "stop_name": "FLAMINIA/TOR DI QUINTO",
        "stop_timezone": null,
        "stop_url": null,
        "wheelchair_boarding": null
    },
    {
        "location_type": null,
        "parent_station": null,
        "stop_code": 70004,
        "stop_desc": null,
        "stop_id": 70004,
        "stop_lat": 41.951023,
        "stop_lon": 12.480733,
        "stop_name": "FLAMINIA/MONTEROSI",
        "stop_timezone": null,
        "stop_url": null,
        "wheelchair_boarding": null
    },
    {
        "location_type": null,
        "parent_station": null,
        "stop_code": 70005,
        "stop_desc": null,
        "stop_id": 70005,
        "stop_lat": 41.949773,
        "stop_lon": 12.478958,
        "stop_name": "FLAMINIA/CAPPELLI R.",
        "stop_timezone": null,
        "stop_url": null,
        "wheelchair_boarding": null
    },
    {
        "location_type": null,
        "parent_station": null,
        "stop_code": 70006,
        "stop_desc": null,
        "stop_id": 70006,
        "stop_lat": 41.947815,
        "stop_lon": 12.475602,
        "stop_name": "FLAMINIA/MORLUPO",
        "stop_timezone": null,
        "stop_url": null,
        "wheelchair_boarding": null
    },
    {
        "location_type": null,
        "parent_station": null,
        "stop_code": 70007,
        "stop_desc": null,
        "stop_id": 70007,
        "stop_lat": 41.946295,
        "stop_lon": 12.473415,
        "stop_name": "FLAMINIA/NITTI",
        "stop_timezone": null,
        "stop_url": null,
        "wheelchair_boarding": null
    },
    {
        "location_type": null,
        "parent_station": null,
        "stop_code": 70008,
        "stop_desc": null,
        "stop_id": 70008,
        "stop_lat": 41.944303,
        "stop_lon": 12.472062,
        "stop_name": "FLAMINIA/BEVAGNA",
        "stop_timezone": null,
        "stop_url": null,
        "wheelchair_boarding": null
    },
    {
        "location_type": null,
        "parent_station": null,
        "stop_code": 70009,
        "stop_desc": null,
        "stop_id": 70009,
        "stop_lat": 41.940735,
        "stop_lon": 12.47079,
        "stop_name": "C.SO FRANCIA/FLAMINIA",
        "stop_timezone": null,
        "stop_url": null,
        "wheelchair_boarding": null
    },
    {
        "location_type": null,
        "parent_station": null,
        "stop_code": 70010,
        "stop_desc": null,
        "stop_id": 70010,
        "stop_lat": 41.93711,
        "stop_lon": 12.469635,
        "stop_name": "TOR DI QUINTO/RIANO",
        "stop_timezone": null,
        "stop_url": null,
        "wheelchair_boarding": null
    },
    {
        "location_type": null,
        "parent_station": null,
        "stop_code": 70011,
        "stop_desc": null,
        "stop_id": 70011,
        "stop_lat": 41.912182,
        "stop_lon": 12.563843,
        "stop_name": "MOZART/SIBELIUS",
        "stop_timezone": null,
        "stop_url": null,
        "wheelchair_boarding": null
    },
    {
        "location_type": null,
        "parent_station": null,
        "stop_code": 70012,
        "stop_desc": null,
        "stop_id": 70012,
        "stop_lat": 41.91419,
        "stop_lon": 12.562372,
        "stop_name": "MOZART/BADILE",
        "stop_timezone": null,
        "stop_url": null,
        "wheelchair_boarding": null
    },
    {
        "location_type": null,
        "parent_station": null,
        "stop_code": 70013,
        "stop_desc": null,
        "stop_id": 70013,
        "stop_lat": 41.936717,
        "stop_lon": 12.65037,
        "stop_name": "ORTUCCHIO/PACENTRO",
        "stop_timezone": null,
        "stop_url": null,
        "wheelchair_boarding": null
    },
    {
        "location_type": null,
        "parent_station": null,
        "stop_code": 70014,
        "stop_desc": null,
        "stop_id": 70014,
        "stop_lat": 41.931103,
        "stop_lon": 12.462867,
        "stop_name": "LGT THAON DI REVEL/FORO ITALICO",
        "stop_timezone": null,
        "stop_url": null,
        "wheelchair_boarding": null
    },
    {
        "location_type": null,
        "parent_station": null,
        "stop_code": 70015,
        "stop_desc": null,
        "stop_id": 70015,
        "stop_lat": 41.933332,
        "stop_lon": 12.465273,
        "stop_name": "LGT THAON DI REVEL/ROMANO",
        "stop_timezone": null,
        "stop_url": null,
        "wheelchair_boarding": null
    },
    {
        "location_type": null,
        "parent_station": null,
        "stop_code": 70017,
        "stop_desc": null,
        "stop_id": 70017,
        "stop_lat": 41.93127,
        "stop_lon": 12.467823,
        "stop_name": "FLAMINIA/CALDERINI",
        "stop_timezone": null,
        "stop_url": null,
        "wheelchair_boarding": null
    },
    {
        "location_type": null,
        "parent_station": null,
        "stop_code": 70018,
        "stop_desc": null,
        "stop_id": 70018,
        "stop_lat": 41.929507,
        "stop_lon": 12.468508,
        "stop_name": "FLAMINIA/CARRACCI",
        "stop_timezone": null,
        "stop_url": null,
        "wheelchair_boarding": null
    },
    {
        "location_type": null,
        "parent_station": null,
        "stop_code": 70019,
        "stop_desc": null,
        "stop_id": 70019,
        "stop_lat": 41.927795,
        "stop_lon": 12.469225,
        "stop_name": "FLAMINIA/RENI",
        "stop_timezone": null,
        "stop_url": null,
        "wheelchair_boarding": null
    },
    {
        "location_type": null,
        "parent_station": null,
        "stop_code": 70020,
        "stop_desc": null,
        "stop_id": 70020,
        "stop_lat": 41.924993,
        "stop_lon": 12.470365,
        "stop_name": "FLAMINIA/VIGNOLA",
        "stop_timezone": null,
        "stop_url": null,
        "wheelchair_boarding": null
    },
    {
        "location_type": null,
        "parent_station": null,
        "stop_code": 70021,
        "stop_desc": null,
        "stop_id": 70021,
        "stop_lat": 41.922922,
        "stop_lon": 12.471217,
        "stop_name": "FLAMINIA/FRACASSINI",
        "stop_timezone": null,
        "stop_url": null,
        "wheelchair_boarding": null
    },
    {
        "location_type": null,
        "parent_station": null,
        "stop_code": 70023,
        "stop_desc": null,
        "stop_id": 70023,
        "stop_lat": 41.658612,
        "stop_lon": 12.414415,
        "stop_name": "LITORANEA/VARCO 5",
        "stop_timezone": null,
        "stop_url": null,
        "wheelchair_boarding": null
    },
    {
        "location_type": null,
        "parent_station": null,
        "stop_code": 70026,
        "stop_desc": null,
        "stop_id": 70026,
        "stop_lat": 41.91369,
        "stop_lon": 12.480627,
        "stop_name": "DEL FIOCCO/VALLE GIULIA",
        "stop_timezone": null,
        "stop_url": null,
        "wheelchair_boarding": null
    },
    {
        "location_type": null,
        "parent_station": null,
        "stop_code": 70027,
        "stop_desc": null,
        "stop_id": 70027,
        "stop_lat": 41.912985,
        "stop_lon": 12.483458,
        "stop_name": "VICTOR HUGO/MUSEO BILOTTI",
        "stop_timezone": null,
        "stop_url": null,
        "wheelchair_boarding": null
    },
    {
        "location_type": null,
        "parent_station": null,
        "stop_code": 70029,
        "stop_desc": null,
        "stop_id": 70029,
        "stop_lat": 41.913338,
        "stop_lon": 12.482812,
        "stop_name": "VICTOR HUGO/MUSEO BILOTTI",
        "stop_timezone": null,
        "stop_url": null,
        "wheelchair_boarding": null
    },
    {
        "location_type": null,
        "parent_station": null,
        "stop_code": 70030,
        "stop_desc": null,
        "stop_id": 70030,
        "stop_lat": 41.913785,
        "stop_lon": 12.481062,
        "stop_name": "DEL FIOCCO/VALLE GIULIA",
        "stop_timezone": null,
        "stop_url": null,
        "wheelchair_boarding": null
    },
    {
        "location_type": null,
        "parent_station": null,
        "stop_code": 70031,
        "stop_desc": null,
        "stop_id": 70031,
        "stop_lat": 41.902507,
        "stop_lon": 12.497133,
        "stop_name": "REPUBBLICA (MA)",
        "stop_timezone": null,
        "stop_url": null,
        "wheelchair_boarding": null
    },
    {
        "location_type": null,
        "parent_station": null,
        "stop_code": 70032,
        "stop_desc": null,
        "stop_id": 70032,
        "stop_lat": 41.901883,
        "stop_lon": 12.494925,
        "stop_name": "NAZIONALE/TORINO",
        "stop_timezone": null,
        "stop_url": null,
        "wheelchair_boarding": null
    },
    {
        "location_type": null,
        "parent_station": null,
        "stop_code": 70033,
        "stop_desc": null,
        "stop_id": 70033,
        "stop_lat": 41.912492,
        "stop_lon": 12.477485,
        "stop_name": "VILLA BORGHESE/WASHINGTON",
        "stop_timezone": null,
        "stop_url": null,
        "wheelchair_boarding": null
    },
    {
        "location_type": null,
        "parent_station": null,
        "stop_code": 70034,
        "stop_desc": null,
        "stop_id": 70034,
        "stop_lat": 41.900162,
        "stop_lon": 12.492303,
        "stop_name": "NAZIONALE/QUATTRO FONTANE",
        "stop_timezone": null,
        "stop_url": null,
        "wheelchair_boarding": null
    },
    {
        "location_type": null,
        "parent_station": null,
        "stop_code": 70035,
        "stop_desc": null,
        "stop_id": 70035,
        "stop_lat": 41.899138,
        "stop_lon": 12.490738,
        "stop_name": "NAZIONALE/PALAZZO ESPOSIZIONI",
        "stop_timezone": null,
        "stop_url": null,
        "wheelchair_boarding": null
    },
    {
        "location_type": null,
        "parent_station": null,
        "stop_code": 70036,
        "stop_desc": null,
        "stop_id": 70036,
        "stop_lat": 41.660835,
        "stop_lon": 12.411013,
        "stop_name": "LITORANEA/VARCO 4",
        "stop_timezone": null,
        "stop_url": null,
        "wheelchair_boarding": null
    },
    {
        "location_type": null,
        "parent_station": null,
        "stop_code": 70037,
        "stop_desc": null,
        "stop_id": 70037,
        "stop_lat": 41.896973,
        "stop_lon": 12.487435,
        "stop_name": "NAZIONALE/QUIRINALE",
        "stop_timezone": null,
        "stop_url": null,
        "wheelchair_boarding": null
    },
    {
        "location_type": null,
        "parent_station": null,
        "stop_code": 70038,
        "stop_desc": null,
        "stop_id": 70038,
        "stop_lat": 41.896827,
        "stop_lon": 12.482848,
        "stop_name": "P.ZA VENEZIA",
        "stop_timezone": null,
        "stop_url": null,
        "wheelchair_boarding": null
    },
    {
        "location_type": null,
        "parent_station": null,
        "stop_code": 70039,
        "stop_desc": null,
        "stop_id": 70039,
        "stop_lat": 41.915823,
        "stop_lon": 12.474337,
        "stop_name": "PIAZZA DELLA MARINA",
        "stop_timezone": null,
        "stop_url": null,
        "wheelchair_boarding": null
    },
    {
        "location_type": null,
        "parent_station": null,
        "stop_code": 70041,
        "stop_desc": null,
        "stop_id": 70041,
        "stop_lat": 41.91788,
        "stop_lon": 12.473433,
        "stop_name": "FLAMINIA/VILLA GIULIA",
        "stop_timezone": null,
        "stop_url": null,
        "wheelchair_boarding": null
    },
    {
        "location_type": null,
        "parent_station": null,
        "stop_code": 70042,
        "stop_desc": null,
        "stop_id": 70042,
        "stop_lat": 41.896122,
        "stop_lon": 12.476855,
        "stop_name": "ARGENTINA",
        "stop_timezone": null,
        "stop_url": null,
        "wheelchair_boarding": null
    },
    {
        "location_type": null,
        "parent_station": null,
        "stop_code": 70044,
        "stop_desc": null,
        "stop_id": 70044,
        "stop_lat": 41.896573,
        "stop_lon": 12.473893,
        "stop_name": "C.SO VITTORIO EMANUELE/S. A. DELLA VALLE",
        "stop_timezone": null,
        "stop_url": null,
        "wheelchair_boarding": null
    },
    {
        "location_type": null,
        "parent_station": null,
        "stop_code": 70045,
        "stop_desc": null,
        "stop_id": 70045,
        "stop_lat": 41.92424,
        "stop_lon": 12.471765,
        "stop_name": "ANKARA",
        "stop_timezone": null,
        "stop_url": null,
        "wheelchair_boarding": null
    },
    {
        "location_type": null,
        "parent_station": null,
        "stop_code": 70046,
        "stop_desc": null,
        "stop_id": 70046,
        "stop_lat": 41.665523,
        "stop_lon": 12.404817,
        "stop_name": "LITORANEA/VARCO 3",
        "stop_timezone": null,
        "stop_url": null,
        "wheelchair_boarding": null
    },
    {
        "location_type": null,
        "parent_station": null,
        "stop_code": 70047,
        "stop_desc": null,
        "stop_id": 70047,
        "stop_lat": 41.9294,
        "stop_lon": 12.469528,
        "stop_name": "TIZIANO/APOLLODORO",
        "stop_timezone": null,
        "stop_url": null,
        "wheelchair_boarding": null
    },
    {
        "location_type": null,
        "parent_station": null,
        "stop_code": 70048,
        "stop_desc": null,
        "stop_id": 70048,
        "stop_lat": 41.932297,
        "stop_lon": 12.468382,
        "stop_name": "TIZIANO/XVII OLIMPIADE",
        "stop_timezone": null,
        "stop_url": null,
        "wheelchair_boarding": null
    },
    {
        "location_type": null,
        "parent_station": null,
        "stop_code": 70049,
        "stop_desc": null,
        "stop_id": 70049,
        "stop_lat": 41.897195,
        "stop_lon": 12.471447,
        "stop_name": "C.SO VITTORIO EMANUELE/NAVONA",
        "stop_timezone": null,
        "stop_url": null,
        "wheelchair_boarding": null
    },
    {
        "location_type": null,
        "parent_station": null,
        "stop_code": 70050,
        "stop_desc": null,
        "stop_id": 70050,
        "stop_lat": 41.670665,
        "stop_lon": 12.398348,
        "stop_name": "LITORANEA/VARCO 2",
        "stop_timezone": null,
        "stop_url": null,
        "wheelchair_boarding": null
    },
    {
        "location_type": null,
        "parent_station": null,
        "stop_code": 70051,
        "stop_desc": null,
        "stop_id": 70051,
        "stop_lat": 41.934373,
        "stop_lon": 12.46675,
        "stop_name": "LGT THAON DI REVEL/P. MILVIO",
        "stop_timezone": null,
        "stop_url": null,
        "wheelchair_boarding": null
    },
    {
        "location_type": null,
        "parent_station": null,
        "stop_code": 70052,
        "stop_desc": null,
        "stop_id": 70052,
        "stop_lat": 41.93315,
        "stop_lon": 12.46471,
        "stop_name": "LGT THAON DI REVEL/ROMANO",
        "stop_timezone": null,
        "stop_url": null,
        "wheelchair_boarding": null
    },
    {
        "location_type": null,
        "parent_station": null,
        "stop_code": 70053,
        "stop_desc": null,
        "stop_id": 70053,
        "stop_lat": 41.898827,
        "stop_lon": 12.467495,
        "stop_name": "C.SO VITTORIO EMANUELE/TASSONI",
        "stop_timezone": null,
        "stop_url": null,
        "wheelchair_boarding": null
    },
    {
        "location_type": null,
        "parent_station": null,
        "stop_code": 70054,
        "stop_desc": null,
        "stop_id": 70054,
        "stop_lat": 41.90046,
        "stop_lon": 12.465345,
        "stop_name": "PONTE VITTORIO EMANUELE",
        "stop_timezone": null,
        "stop_url": null,
        "wheelchair_boarding": null
    },
    {
        "location_type": null,
        "parent_station": null,
        "stop_code": 70055,
        "stop_desc": null,
        "stop_id": 70055,
        "stop_lat": 41.93122,
        "stop_lon": 12.462508,
        "stop_name": "LGT THAON DI REVEL/DUCA D'AOSTA",
        "stop_timezone": null,
        "stop_url": null,
        "wheelchair_boarding": null
    },
    {
        "location_type": null,
        "parent_station": null,
        "stop_code": 70057,
        "stop_desc": null,
        "stop_id": 70057,
        "stop_lat": 41.932692,
        "stop_lon": 12.460705,
        "stop_name": "LGT M.LLO DIAZ/DE BOSIS",
        "stop_timezone": null,
        "stop_url": null,
        "wheelchair_boarding": null
    },
    {
        "location_type": null,
        "parent_station": null,
        "stop_code": 70059,
        "stop_desc": null,
        "stop_id": 70059,
        "stop_lat": 41.672105,
        "stop_lon": 12.395833,
        "stop_name": "LITORANEA/VARCO 1",
        "stop_timezone": null,
        "stop_url": null,
        "wheelchair_boarding": null
    },
    {
        "location_type": null,
        "parent_station": null,
        "stop_code": 70061,
        "stop_desc": null,
        "stop_id": 70061,
        "stop_lat": 41.935582,
        "stop_lon": 12.464813,
        "stop_name": "LGT M.LLO DIAZ/PONTE MILVIO",
        "stop_timezone": null,
        "stop_url": null,
        "wheelchair_boarding": null
    },
    {
        "location_type": null,
        "parent_station": null,
        "stop_code": 70064,
        "stop_desc": null,
        "stop_id": 70064,
        "stop_lat": 41.671417,
        "stop_lon": 12.39666,
        "stop_name": "LITORANEA/VARCO 1",
        "stop_timezone": null,
        "stop_url": null,
        "wheelchair_boarding": null
    },
    {
        "location_type": null,
        "parent_station": null,
        "stop_code": 70065,
        "stop_desc": null,
        "stop_id": 70065,
        "stop_lat": 41.940813,
        "stop_lon": 12.471067,
        "stop_name": "C.SO FRANCIA/FLAMINIA",
        "stop_timezone": null,
        "stop_url": null,
        "wheelchair_boarding": null
    },
    {
        "location_type": null,
        "parent_station": null,
        "stop_code": 70066,
        "stop_desc": null,
        "stop_id": 70066,
        "stop_lat": 41.944963,
        "stop_lon": 12.472668,
        "stop_name": "FLAMINIA/BEVAGNA",
        "stop_timezone": null,
        "stop_url": null,
        "wheelchair_boarding": null
    },
    {
        "location_type": null,
        "parent_station": null,
        "stop_code": 70067,
        "stop_desc": null,
        "stop_id": 70067,
        "stop_lat": 41.899742,
        "stop_lon": 12.464937,
        "stop_name": "ACCIAIOLI",
        "stop_timezone": null,
        "stop_url": null,
        "wheelchair_boarding": null
    },
    {
        "location_type": null,
        "parent_station": null,
        "stop_code": 70068,
        "stop_desc": null,
        "stop_id": 70068,
        "stop_lat": 41.94659,
        "stop_lon": 12.473805,
        "stop_name": "FLAMINIA/NITTI",
        "stop_timezone": null,
        "stop_url": null,
        "wheelchair_boarding": null
    },
    {
        "location_type": null,
        "parent_station": null,
        "stop_code": 70069,
        "stop_desc": null,
        "stop_id": 70069,
        "stop_lat": 41.947722,
        "stop_lon": 12.476433,
        "stop_name": "FLAMINIA/MORLUPO",
        "stop_timezone": null,
        "stop_url": null,
        "wheelchair_boarding": null
    },
    {
        "location_type": null,
        "parent_station": null,
        "stop_code": 70070,
        "stop_desc": null,
        "stop_id": 70070,
        "stop_lat": 41.898943,
        "stop_lon": 12.467087,
        "stop_name": "C.SO VITTORIO EMANUELE/TASSONI",
        "stop_timezone": null,
        "stop_url": null,
        "wheelchair_boarding": null
    },
    {
        "location_type": null,
        "parent_station": null,
        "stop_code": 70071,
        "stop_desc": null,
        "stop_id": 70071,
        "stop_lat": 41.948903,
        "stop_lon": 12.478452,
        "stop_name": "FLAMINIA/CAPPELLI R.",
        "stop_timezone": null,
        "stop_url": null,
        "wheelchair_boarding": null
    },
    {
        "location_type": null,
        "parent_station": null,
        "stop_code": 70072,
        "stop_desc": null,
        "stop_id": 70072,
        "stop_lat": 41.897483,
        "stop_lon": 12.469615,
        "stop_name": "CHIESA NUOVA",
        "stop_timezone": null,
        "stop_url": null,
        "wheelchair_boarding": null
    },
    {
        "location_type": null,
        "parent_station": null,
        "stop_code": 70073,
        "stop_desc": null,
        "stop_id": 70073,
        "stop_lat": 41.897002,
        "stop_lon": 12.47177,
        "stop_name": "C.SO VITTORIO EMANUELE/NAVONA",
        "stop_timezone": null,
        "stop_url": null,
        "wheelchair_boarding": null
    },
    {
        "location_type": null,
        "parent_station": null,
        "stop_code": 70074,
        "stop_desc": null,
        "stop_id": 70074,
        "stop_lat": 41.950912,
        "stop_lon": 12.481103,
        "stop_name": "FLAMINIA/MONTEROSI",
        "stop_timezone": null,
        "stop_url": null,
        "wheelchair_boarding": null
    },
    {
        "location_type": null,
        "parent_station": null,
        "stop_code": 70075,
        "stop_desc": null,
        "stop_id": 70075,
        "stop_lat": 41.669885,
        "stop_lon": 12.399002,
        "stop_name": "LITORANEA/VARCO 2",
        "stop_timezone": null,
        "stop_url": null,
        "wheelchair_boarding": null
    },
    {
        "location_type": null,
        "parent_station": null,
        "stop_code": 70076,
        "stop_desc": null,
        "stop_id": 70076,
        "stop_lat": 41.664962,
        "stop_lon": 12.405092,
        "stop_name": "LITORANEA/VARCO 3",
        "stop_timezone": null,
        "stop_url": null,
        "wheelchair_boarding": null
    },
    {
        "location_type": null,
        "parent_station": null,
        "stop_code": 70078,
        "stop_desc": null,
        "stop_id": 70078,
        "stop_lat": 41.896738,
        "stop_lon": 12.483128,
        "stop_name": "P.ZA VENEZIA",
        "stop_timezone": null,
        "stop_url": null,
        "wheelchair_boarding": null
    },
    {
        "location_type": null,
        "parent_station": null,
        "stop_code": 70079,
        "stop_desc": null,
        "stop_id": 70079,
        "stop_lat": 41.897053,
        "stop_lon": 12.487842,
        "stop_name": "NAZIONALE/QUIRINALE",
        "stop_timezone": null,
        "stop_url": null,
        "wheelchair_boarding": null
    },
    {
        "location_type": null,
        "parent_station": null,
        "stop_code": 70080,
        "stop_desc": null,
        "stop_id": 70080,
        "stop_lat": 41.954643,
        "stop_lon": 12.484863,
        "stop_name": "FLAMINIA/CANTALUPO",
        "stop_timezone": null,
        "stop_url": null,
        "wheelchair_boarding": null
    },
    {
        "location_type": null,
        "parent_station": null,
        "stop_code": 70081,
        "stop_desc": null,
        "stop_id": 70081,
        "stop_lat": 41.898455,
        "stop_lon": 12.489903,
        "stop_name": "NAZIONALE/PALAZZO ESPOSIZIONI",
        "stop_timezone": null,
        "stop_url": null,
        "wheelchair_boarding": null
    },
    {
        "location_type": null,
        "parent_station": null,
        "stop_code": 70082,
        "stop_desc": null,
        "stop_id": 70082,
        "stop_lat": 41.899987,
        "stop_lon": 12.492285,
        "stop_name": "NAZIONALE/QUATTRO FONTANE",
        "stop_timezone": null,
        "stop_url": null,
        "wheelchair_boarding": null
    },
    {
        "location_type": null,
        "parent_station": null,
        "stop_code": 70083,
        "stop_desc": null,
        "stop_id": 70083,
        "stop_lat": 41.95557,
        "stop_lon": 12.484942,
        "stop_name": "STAZ.NE DUE PONTI",
        "stop_timezone": null,
        "stop_url": null,
        "wheelchair_boarding": null
    },
    {
        "location_type": null,
        "parent_station": null,
        "stop_code": 70084,
        "stop_desc": null,
        "stop_id": 70084,
        "stop_lat": 41.901843,
        "stop_lon": 12.495113,
        "stop_name": "NAZIONALE/TORINO",
        "stop_timezone": null,
        "stop_url": null,
        "wheelchair_boarding": null
    },
    {
        "location_type": null,
        "parent_station": null,
        "stop_code": 70085,
        "stop_desc": null,
        "stop_id": 70085,
        "stop_lat": 41.901828,
        "stop_lon": 12.497102,
        "stop_name": "TERME DIOCLEZIANO",
        "stop_timezone": null,
        "stop_url": null,
        "wheelchair_boarding": null
    },
    {
        "location_type": null,
        "parent_station": null,
        "stop_code": 70087,
        "stop_desc": null,
        "stop_id": 70087,
        "stop_lat": 41.660897,
        "stop_lon": 12.410602,
        "stop_name": "LITORANEA/VARCO 4",
        "stop_timezone": null,
        "stop_url": null,
        "wheelchair_boarding": null
    },
    {
        "location_type": null,
        "parent_station": null,
        "stop_code": 70088,
        "stop_desc": null,
        "stop_id": 70088,
        "stop_lat": 41.658228,
        "stop_lon": 12.414757,
        "stop_name": "LITORANEA/VARCO 5",
        "stop_timezone": null,
        "stop_url": null,
        "wheelchair_boarding": null
    },
    {
        "location_type": null,
        "parent_station": null,
        "stop_code": 70093,
        "stop_desc": null,
        "stop_id": 70093,
        "stop_lat": 41.896558,
        "stop_lon": 12.449897,
        "stop_name": "GREGORIO VII/RANUCCI",
        "stop_timezone": null,
        "stop_url": null,
        "wheelchair_boarding": null
    },
    {
        "location_type": null,
        "parent_station": null,
        "stop_code": 70095,
        "stop_desc": null,
        "stop_id": 70095,
        "stop_lat": 41.648593,
        "stop_lon": 12.43109,
        "stop_name": "LAGO MAGGIORE",
        "stop_timezone": null,
        "stop_url": null,
        "wheelchair_boarding": null
    },
    {
        "location_type": null,
        "parent_station": null,
        "stop_code": 70100,
        "stop_desc": null,
        "stop_id": 70100,
        "stop_lat": 41.899498,
        "stop_lon": 12.461552,
        "stop_name": "P.ZA DELLA ROVERE",
        "stop_timezone": null,
        "stop_url": null,
        "wheelchair_boarding": null
    },
    {
        "location_type": null,
        "parent_station": null,
        "stop_code": 70101,
        "stop_desc": null,
        "stop_id": 70101,
        "stop_lat": 41.896158,
        "stop_lon": 12.464817,
        "stop_name": "LGT GIANICOLENSE/REGINA COELI",
        "stop_timezone": null,
        "stop_url": null,
        "wheelchair_boarding": null
    },
    {
        "location_type": null,
        "parent_station": null,
        "stop_code": 70102,
        "stop_desc": null,
        "stop_id": 70102,
        "stop_lat": 41.894402,
        "stop_lon": 12.46692,
        "stop_name": "LGT FARNESINA",
        "stop_timezone": null,
        "stop_url": null,
        "wheelchair_boarding": null
    },
    {
        "location_type": null,
        "parent_station": null,
        "stop_code": 70103,
        "stop_desc": null,
        "stop_id": 70103,
        "stop_lat": 41.892413,
        "stop_lon": 12.469458,
        "stop_name": "LGT FARNESINA/TRILUSSA",
        "stop_timezone": null,
        "stop_url": null,
        "wheelchair_boarding": null
    },
    {
        "location_type": null,
        "parent_station": null,
        "stop_code": 70104,
        "stop_desc": null,
        "stop_id": 70104,
        "stop_lat": 41.877515,
        "stop_lon": 12.44127,
        "stop_name": "GIANICOLENSE/CASALETTO",
        "stop_timezone": null,
        "stop_url": null,
        "wheelchair_boarding": null
    },
    {
        "location_type": null,
        "parent_station": null,
        "stop_code": 70105,
        "stop_desc": null,
        "stop_id": 70105,
        "stop_lat": 41.892247,
        "stop_lon": 12.4748,
        "stop_name": "ARENULA/MIN. G. GIUSTIZIA",
        "stop_timezone": null,
        "stop_url": null,
        "wheelchair_boarding": null
    },
    {
        "location_type": null,
        "parent_station": null,
        "stop_code": 70108,
        "stop_desc": null,
        "stop_id": 70108,
        "stop_lat": 41.904663,
        "stop_lon": 12.49777,
        "stop_name": "CERNAIA",
        "stop_timezone": null,
        "stop_url": null,
        "wheelchair_boarding": null
    },
    {
        "location_type": null,
        "parent_station": null,
        "stop_code": 70110,
        "stop_desc": null,
        "stop_id": 70110,
        "stop_lat": 41.90799,
        "stop_lon": 12.500583,
        "stop_name": "PALESTRO",
        "stop_timezone": null,
        "stop_url": null,
        "wheelchair_boarding": null
    },
    {
        "location_type": null,
        "parent_station": null,
        "stop_code": 70111,
        "stop_desc": null,
        "stop_id": 70111,
        "stop_lat": 41.908658,
        "stop_lon": 12.50213,
        "stop_name": "PORTA PIA",
        "stop_timezone": null,
        "stop_url": null,
        "wheelchair_boarding": null
    },
    {
        "location_type": null,
        "parent_station": null,
        "stop_code": 70112,
        "stop_desc": null,
        "stop_id": 70112,
        "stop_lat": 41.908045,
        "stop_lon": 12.504278,
        "stop_name": "CROCE ROSSA",
        "stop_timezone": null,
        "stop_url": null,
        "wheelchair_boarding": null
    },
    {
        "location_type": null,
        "parent_station": null,
        "stop_code": 70117,
        "stop_desc": null,
        "stop_id": 70117,
        "stop_lat": 41.865732,
        "stop_lon": 12.494665,
        "stop_name": "PADRE SEMERIA/VALIGNANO",
        "stop_timezone": null,
        "stop_url": null,
        "wheelchair_boarding": null
    },
    {
        "location_type": null,
        "parent_station": null,
        "stop_code": 70118,
        "stop_desc": null,
        "stop_id": 70118,
        "stop_lat": 41.912992,
        "stop_lon": 12.518927,
        "stop_name": "RAVENNA/PIAZZA",
        "stop_timezone": null,
        "stop_url": null,
        "wheelchair_boarding": null
    },
    {
        "location_type": null,
        "parent_station": null,
        "stop_code": 70124,
        "stop_desc": null,
        "stop_id": 70124,
        "stop_lat": 41.863517,
        "stop_lon": 12.496555,
        "stop_name": "PADRE SEMERIA/COLOMBO",
        "stop_timezone": null,
        "stop_url": null,
        "wheelchair_boarding": null
    },
    {
        "location_type": null,
        "parent_station": null,
        "stop_code": 70126,
        "stop_desc": null,
        "stop_id": 70126,
        "stop_lat": 41.914522,
        "stop_lon": 12.522198,
        "stop_name": "BOLOGNA (MB)",
        "stop_timezone": null,
        "stop_url": null,
        "wheelchair_boarding": null
    },
    {
        "location_type": null,
        "parent_station": null,
        "stop_code": 70127,
        "stop_desc": null,
        "stop_id": 70127,
        "stop_lat": 41.91316,
        "stop_lon": 12.51922,
        "stop_name": "RAVENNA/PIAZZA",
        "stop_timezone": null,
        "stop_url": null,
        "wheelchair_boarding": null
    },
    {
        "location_type": null,
        "parent_station": null,
        "stop_code": 70128,
        "stop_desc": null,
        "stop_id": 70128,
        "stop_lat": 41.911878,
        "stop_lon": 12.517157,
        "stop_name": "CATANZARO",
        "stop_timezone": null,
        "stop_url": null,
        "wheelchair_boarding": null
    },
    {
        "location_type": null,
        "parent_station": null,
        "stop_code": 70130,
        "stop_desc": null,
        "stop_id": 70130,
        "stop_lat": 41.802703,
        "stop_lon": 12.447833,
        "stop_name": "CHIANESI (H)",
        "stop_timezone": null,
        "stop_url": null,
        "wheelchair_boarding": null
    },
    {
        "location_type": null,
        "parent_station": null,
        "stop_code": 70133,
        "stop_desc": null,
        "stop_id": 70133,
        "stop_lat": 41.909092,
        "stop_lon": 12.507403,
        "stop_name": "POLICLINICO (H)",
        "stop_timezone": null,
        "stop_url": null,
        "wheelchair_boarding": null
    },
    {
        "location_type": null,
        "parent_station": null,
        "stop_code": 70134,
        "stop_desc": null,
        "stop_id": 70134,
        "stop_lat": 41.935035,
        "stop_lon": 12.472067,
        "stop_name": "C.SO FRANCIA/URUGUAY",
        "stop_timezone": null,
        "stop_url": null,
        "wheelchair_boarding": null
    },
    {
        "location_type": null,
        "parent_station": null,
        "stop_code": 70135,
        "stop_desc": null,
        "stop_id": 70135,
        "stop_lat": 41.908455,
        "stop_lon": 12.503198,
        "stop_name": "CROCE ROSSA",
        "stop_timezone": null,
        "stop_url": null,
        "wheelchair_boarding": null
    },
    {
        "location_type": null,
        "parent_station": null,
        "stop_code": 70136,
        "stop_desc": null,
        "stop_id": 70136,
        "stop_lat": 41.909095,
        "stop_lon": 12.502025,
        "stop_name": "PORTA PIA",
        "stop_timezone": null,
        "stop_url": null,
        "wheelchair_boarding": null
    },
    {
        "location_type": null,
        "parent_station": null,
        "stop_code": 70137,
        "stop_desc": null,
        "stop_id": 70137,
        "stop_lat": 41.907037,
        "stop_lon": 12.498207,
        "stop_name": "XX SETTEMBRE/PIAVE",
        "stop_timezone": null,
        "stop_url": null,
        "wheelchair_boarding": null
    },
    {
        "location_type": null,
        "parent_station": null,
        "stop_code": 70138,
        "stop_desc": null,
        "stop_id": 70138,
        "stop_lat": 41.905632,
        "stop_lon": 12.496195,
        "stop_name": "XX SETTEMBRE/MIN. FINANZE",
        "stop_timezone": null,
        "stop_url": null,
        "wheelchair_boarding": null
    },
    {
        "location_type": null,
        "parent_station": null,
        "stop_code": 70140,
        "stop_desc": null,
        "stop_id": 70140,
        "stop_lat": 41.937973,
        "stop_lon": 12.471553,
        "stop_name": "C.SO FRANCIA/PONTE FLAMINIO",
        "stop_timezone": null,
        "stop_url": null,
        "wheelchair_boarding": null
    },
    {
        "location_type": null,
        "parent_station": null,
        "stop_code": 70142,
        "stop_desc": null,
        "stop_id": 70142,
        "stop_lat": 41.944392,
        "stop_lon": 12.46953,
        "stop_name": "C.SO FRANCIA/BODIO",
        "stop_timezone": null,
        "stop_url": null,
        "wheelchair_boarding": null
    },
    {
        "location_type": null,
        "parent_station": null,
        "stop_code": 70143,
        "stop_desc": null,
        "stop_id": 70143,
        "stop_lat": 41.946655,
        "stop_lon": 12.469887,
        "stop_name": "VILLA SEVERINI",
        "stop_timezone": null,
        "stop_url": null,
        "wheelchair_boarding": null
    },
    {
        "location_type": null,
        "parent_station": null,
        "stop_code": 70145,
        "stop_desc": null,
        "stop_id": 70145,
        "stop_lat": 41.948697,
        "stop_lon": 12.469782,
        "stop_name": "CASSIA/VIGNA CLARA (FS)",
        "stop_timezone": null,
        "stop_url": null,
        "wheelchair_boarding": null
    },
    {
        "location_type": null,
        "parent_station": null,
        "stop_code": 70148,
        "stop_desc": null,
        "stop_id": 70148,
        "stop_lat": 41.951265,
        "stop_lon": 12.467907,
        "stop_name": "CASSIA/FABBRONI",
        "stop_timezone": null,
        "stop_url": null,
        "wheelchair_boarding": null
    },
    {
        "location_type": null,
        "parent_station": null,
        "stop_code": 70149,
        "stop_desc": null,
        "stop_id": 70149,
        "stop_lat": 41.892387,
        "stop_lon": 12.471797,
        "stop_name": "LGT VALLATI/PETTINARI",
        "stop_timezone": null,
        "stop_url": null,
        "wheelchair_boarding": null
    },
    {
        "location_type": null,
        "parent_station": null,
        "stop_code": 70150,
        "stop_desc": null,
        "stop_id": 70150,
        "stop_lat": 41.956838,
        "stop_lon": 12.460583,
        "stop_name": "CASSIA/INVIOLATELLA BORGHESE",
        "stop_timezone": null,
        "stop_url": null,
        "wheelchair_boarding": null
    },
    {
        "location_type": null,
        "parent_station": null,
        "stop_code": 70151,
        "stop_desc": null,
        "stop_id": 70151,
        "stop_lat": 41.895078,
        "stop_lon": 12.46844,
        "stop_name": "LGT TEBALDI/ARMATA",
        "stop_timezone": null,
        "stop_url": null,
        "wheelchair_boarding": null
    },
    {
        "location_type": null,
        "parent_station": null,
        "stop_code": 70152,
        "stop_desc": null,
        "stop_id": 70152,
        "stop_lat": 41.957458,
        "stop_lon": 12.457735,
        "stop_name": "CASSIA/ORIOLO ROMANO",
        "stop_timezone": null,
        "stop_url": null,
        "wheelchair_boarding": null
    },
    {
        "location_type": null,
        "parent_station": null,
        "stop_code": 70155,
        "stop_desc": null,
        "stop_id": 70155,
        "stop_lat": 41.960033,
        "stop_lon": 12.452652,
        "stop_name": "CASSIA/S. GODENZO",
        "stop_timezone": null,
        "stop_url": null,
        "wheelchair_boarding": null
    },
    {
        "location_type": null,
        "parent_station": null,
        "stop_code": 70161,
        "stop_desc": null,
        "stop_id": 70161,
        "stop_lat": 41.897855,
        "stop_lon": 12.450568,
        "stop_name": "GREGORIO VII/STAZ. S. PIETRO (FS)",
        "stop_timezone": null,
        "stop_url": null,
        "wheelchair_boarding": null
    },
    {
        "location_type": null,
        "parent_station": null,
        "stop_code": 70162,
        "stop_desc": null,
        "stop_id": 70162,
        "stop_lat": 41.8962,
        "stop_lon": 12.449358,
        "stop_name": "GREGORIO VII/RANUCCI",
        "stop_timezone": null,
        "stop_url": null,
        "wheelchair_boarding": null
    },
    {
        "location_type": null,
        "parent_station": null,
        "stop_code": 70163,
        "stop_desc": null,
        "stop_id": 70163,
        "stop_lat": 41.962735,
        "stop_lon": 12.447775,
        "stop_name": "CASSIA/VILLA S. PIETRO (H)",
        "stop_timezone": null,
        "stop_url": null,
        "wheelchair_boarding": null
    },
    {
        "location_type": null,
        "parent_station": null,
        "stop_code": 70164,
        "stop_desc": null,
        "stop_id": 70164,
        "stop_lat": 41.960158,
        "stop_lon": 12.451998,
        "stop_name": "CASSIA/S. GODENZO",
        "stop_timezone": null,
        "stop_url": null,
        "wheelchair_boarding": null
    },
    {
        "location_type": null,
        "parent_station": null,
        "stop_code": 70165,
        "stop_desc": null,
        "stop_id": 70165,
        "stop_lat": 41.895837,
        "stop_lon": 12.444763,
        "stop_name": "GREGORIO VII/S. DAMASO",
        "stop_timezone": null,
        "stop_url": null,
        "wheelchair_boarding": null
    },
    {
        "location_type": null,
        "parent_station": null,
        "stop_code": 70166,
        "stop_desc": null,
        "stop_id": 70166,
        "stop_lat": 41.957153,
        "stop_lon": 12.455952,
        "stop_name": "CASSIA/S. GIOVANNA ELISABETTA",
        "stop_timezone": null,
        "stop_url": null,
        "wheelchair_boarding": null
    },
    {
        "location_type": null,
        "parent_station": null,
        "stop_code": 70167,
        "stop_desc": null,
        "stop_id": 70167,
        "stop_lat": 41.896425,
        "stop_lon": 12.441512,
        "stop_name": "GREGORIO VII/DI PIETRO",
        "stop_timezone": null,
        "stop_url": null,
        "wheelchair_boarding": null
    },
    {
        "location_type": null,
        "parent_station": null,
        "stop_code": 70168,
        "stop_desc": null,
        "stop_id": 70168,
        "stop_lat": 41.895128,
        "stop_lon": 12.438768,
        "stop_name": "GREGORIO VII/ANASTASIO II",
        "stop_timezone": null,
        "stop_url": null,
        "wheelchair_boarding": null
    },
    {
        "location_type": null,
        "parent_station": null,
        "stop_code": 70170,
        "stop_desc": null,
        "stop_id": 70170,
        "stop_lat": 41.897565,
        "stop_lon": 12.505323,
        "stop_name": "GIOLITTI",
        "stop_timezone": null,
        "stop_url": null,
        "wheelchair_boarding": null
    },
    {
        "location_type": null,
        "parent_station": null,
        "stop_code": 70173,
        "stop_desc": null,
        "stop_id": 70173,
        "stop_lat": 41.945997,
        "stop_lon": 12.469228,
        "stop_name": "C.SO FRANCIA/VIGNA STELLUTI",
        "stop_timezone": null,
        "stop_url": null,
        "wheelchair_boarding": null
    },
    {
        "location_type": null,
        "parent_station": null,
        "stop_code": 70175,
        "stop_desc": null,
        "stop_id": 70175,
        "stop_lat": 41.943898,
        "stop_lon": 12.469323,
        "stop_name": "C.SO FRANCIA/BODIO",
        "stop_timezone": null,
        "stop_url": null,
        "wheelchair_boarding": null
    },
    {
        "location_type": null,
        "parent_station": null,
        "stop_code": 70179,
        "stop_desc": null,
        "stop_id": 70179,
        "stop_lat": 41.937902,
        "stop_lon": 12.471218,
        "stop_name": "C.SO FRANCIA/PONTE FLAMINIO",
        "stop_timezone": null,
        "stop_url": null,
        "wheelchair_boarding": null
    },
    {
        "location_type": null,
        "parent_station": null,
        "stop_code": 70180,
        "stop_desc": null,
        "stop_id": 70180,
        "stop_lat": 41.899805,
        "stop_lon": 12.494477,
        "stop_name": "VIMINALE",
        "stop_timezone": null,
        "stop_url": null,
        "wheelchair_boarding": null
    },
    {
        "location_type": null,
        "parent_station": null,
        "stop_code": 70181,
        "stop_desc": null,
        "stop_id": 70181,
        "stop_lat": 41.934845,
        "stop_lon": 12.471745,
        "stop_name": "C.SO FRANCIA/URUGUAY",
        "stop_timezone": null,
        "stop_url": null,
        "wheelchair_boarding": null
    },
    {
        "location_type": null,
        "parent_station": null,
        "stop_code": 70183,
        "stop_desc": null,
        "stop_id": 70183,
        "stop_lat": 41.897277,
        "stop_lon": 12.474218,
        "stop_name": "RINASCIMENTO",
        "stop_timezone": null,
        "stop_url": null,
        "wheelchair_boarding": null
    },
    {
        "location_type": null,
        "parent_station": null,
        "stop_code": 70184,
        "stop_desc": null,
        "stop_id": 70184,
        "stop_lat": 41.900265,
        "stop_lon": 12.473913,
        "stop_name": "SENATO",
        "stop_timezone": null,
        "stop_url": null,
        "wheelchair_boarding": null
    },
    {
        "location_type": null,
        "parent_station": null,
        "stop_code": 70187,
        "stop_desc": null,
        "stop_id": 70187,
        "stop_lat": 41.901383,
        "stop_lon": 12.472187,
        "stop_name": "ZANARDELLI",
        "stop_timezone": null,
        "stop_url": null,
        "wheelchair_boarding": null
    },
    {
        "location_type": null,
        "parent_station": null,
        "stop_code": 70188,
        "stop_desc": null,
        "stop_id": 70188,
        "stop_lat": 41.90301,
        "stop_lon": 12.473882,
        "stop_name": "LGT MARZIO",
        "stop_timezone": null,
        "stop_url": null,
        "wheelchair_boarding": null
    },
    {
        "location_type": null,
        "parent_station": null,
        "stop_code": 70189,
        "stop_desc": null,
        "stop_id": 70189,
        "stop_lat": 41.905187,
        "stop_lon": 12.471727,
        "stop_name": "VITTORIA COLONNA",
        "stop_timezone": null,
        "stop_url": null,
        "wheelchair_boarding": null
    },
    {
        "location_type": null,
        "parent_station": null,
        "stop_code": 70190,
        "stop_desc": null,
        "stop_id": 70190,
        "stop_lat": 41.905953,
        "stop_lon": 12.47005,
        "stop_name": "P.ZA CAVOUR",
        "stop_timezone": null,
        "stop_url": null,
        "wheelchair_boarding": null
    },
    {
        "location_type": null,
        "parent_station": null,
        "stop_code": 70191,
        "stop_desc": null,
        "stop_id": 70191,
        "stop_lat": 41.90804,
        "stop_lon": 12.468203,
        "stop_name": "CICERONE/PLINIO",
        "stop_timezone": null,
        "stop_url": null,
        "wheelchair_boarding": null
    },
    {
        "location_type": null,
        "parent_station": null,
        "stop_code": 70197,
        "stop_desc": null,
        "stop_id": 70197,
        "stop_lat": 41.91098,
        "stop_lon": 12.45485,
        "stop_name": "L.GO TRIONFALE",
        "stop_timezone": null,
        "stop_url": null,
        "wheelchair_boarding": null
    },
    {
        "location_type": null,
        "parent_station": null,
        "stop_code": 70198,
        "stop_desc": null,
        "stop_id": 70198,
        "stop_lat": 41.913178,
        "stop_lon": 12.454318,
        "stop_name": "GIULIANA/GRAZIOLI LANTE",
        "stop_timezone": null,
        "stop_url": null,
        "wheelchair_boarding": null
    },
    {
        "location_type": null,
        "parent_station": null,
        "stop_code": 70199,
        "stop_desc": null,
        "stop_id": 70199,
        "stop_lat": 41.915208,
        "stop_lon": 12.453833,
        "stop_name": "GIULIANA/PRETURA",
        "stop_timezone": null,
        "stop_url": null,
        "wheelchair_boarding": null
    },
    {
        "location_type": null,
        "parent_station": null,
        "stop_code": 70200,
        "stop_desc": null,
        "stop_id": 70200,
        "stop_lat": 41.917523,
        "stop_lon": 12.455418,
        "stop_name": "CLODIO",
        "stop_timezone": null,
        "stop_url": null,
        "wheelchair_boarding": null
    },
    {
        "location_type": null,
        "parent_station": null,
        "stop_code": 70201,
        "stop_desc": null,
        "stop_id": 70201,
        "stop_lat": 41.915057,
        "stop_lon": 12.453732,
        "stop_name": "GIULIANA/PRETURA",
        "stop_timezone": null,
        "stop_url": null,
        "wheelchair_boarding": null
    },
    {
        "location_type": null,
        "parent_station": null,
        "stop_code": 70202,
        "stop_desc": null,
        "stop_id": 70202,
        "stop_lat": 41.912477,
        "stop_lon": 12.454283,
        "stop_name": "GIULIANA/GRAZIOLI LANTE",
        "stop_timezone": null,
        "stop_url": null,
        "wheelchair_boarding": null
    },
    {
        "location_type": null,
        "parent_station": null,
        "stop_code": 70203,
        "stop_desc": null,
        "stop_id": 70203,
        "stop_lat": 41.911017,
        "stop_lon": 12.454673,
        "stop_name": "L.GO TRIONFALE",
        "stop_timezone": null,
        "stop_url": null,
        "wheelchair_boarding": null
    },
    {
        "location_type": null,
        "parent_station": null,
        "stop_code": 70206,
        "stop_desc": null,
        "stop_id": 70206,
        "stop_lat": 41.947362,
        "stop_lon": 12.467442,
        "stop_name": "VIGNA STELLUTI/FRANCIA",
        "stop_timezone": null,
        "stop_url": null,
        "wheelchair_boarding": null
    },
    {
        "location_type": null,
        "parent_station": null,
        "stop_code": 70207,
        "stop_desc": null,
        "stop_id": 70207,
        "stop_lat": 41.948065,
        "stop_lon": 12.464037,
        "stop_name": "VIGNA STELLUTI/GIUOCHI DELFICI",
        "stop_timezone": null,
        "stop_url": null,
        "wheelchair_boarding": null
    },
    {
        "location_type": null,
        "parent_station": null,
        "stop_code": 70208,
        "stop_desc": null,
        "stop_id": 70208,
        "stop_lat": 41.950625,
        "stop_lon": 12.460477,
        "stop_name": "CASSIA/PARETO",
        "stop_timezone": null,
        "stop_url": null,
        "wheelchair_boarding": null
    },
    {
        "location_type": null,
        "parent_station": null,
        "stop_code": 70209,
        "stop_desc": null,
        "stop_id": 70209,
        "stop_lat": 41.952462,
        "stop_lon": 12.457453,
        "stop_name": "CASSIA/CORTINA D'AMPEZZO",
        "stop_timezone": null,
        "stop_url": null,
        "wheelchair_boarding": null
    },
    {
        "location_type": null,
        "parent_station": null,
        "stop_code": 70211,
        "stop_desc": null,
        "stop_id": 70211,
        "stop_lat": 41.957212,
        "stop_lon": 12.457445,
        "stop_name": "CASSIA/ORIOLO ROMANO",
        "stop_timezone": null,
        "stop_url": null,
        "wheelchair_boarding": null
    },
    {
        "location_type": null,
        "parent_station": null,
        "stop_code": 70212,
        "stop_desc": null,
        "stop_id": 70212,
        "stop_lat": 41.951893,
        "stop_lon": 12.458087,
        "stop_name": "CASSIA/CORTINA D'AMPEZZO",
        "stop_timezone": null,
        "stop_url": null,
        "wheelchair_boarding": null
    },
    {
        "location_type": null,
        "parent_station": null,
        "stop_code": 70213,
        "stop_desc": null,
        "stop_id": 70213,
        "stop_lat": 41.94984,
        "stop_lon": 12.461383,
        "stop_name": "CASSIA/PARETO",
        "stop_timezone": null,
        "stop_url": null,
        "wheelchair_boarding": null
    },
    {
        "location_type": null,
        "parent_station": null,
        "stop_code": 70214,
        "stop_desc": null,
        "stop_id": 70214,
        "stop_lat": 41.947938,
        "stop_lon": 12.464092,
        "stop_name": "VIGNA STELLUTI",
        "stop_timezone": null,
        "stop_url": null,
        "wheelchair_boarding": null
    },
    {
        "location_type": null,
        "parent_station": null,
        "stop_code": 70219,
        "stop_desc": null,
        "stop_id": 70219,
        "stop_lat": 41.932558,
        "stop_lon": 12.476363,
        "stop_name": "ARGENTINA/BOLIVIA",
        "stop_timezone": null,
        "stop_url": null,
        "wheelchair_boarding": null
    },
    {
        "location_type": null,
        "parent_station": null,
        "stop_code": 70221,
        "stop_desc": null,
        "stop_id": 70221,
        "stop_lat": 41.932485,
        "stop_lon": 12.471408,
        "stop_name": "XVII OLIMPIADE/AUSTRIA",
        "stop_timezone": null,
        "stop_url": null,
        "wheelchair_boarding": null
    },
    {
        "location_type": null,
        "parent_station": null,
        "stop_code": 70224,
        "stop_desc": null,
        "stop_id": 70224,
        "stop_lat": 41.930182,
        "stop_lon": 12.475758,
        "stop_name": "DE COUBERTIN/AUDITORIUM",
        "stop_timezone": null,
        "stop_url": null,
        "wheelchair_boarding": null
    },
    {
        "location_type": null,
        "parent_station": null,
        "stop_code": 70225,
        "stop_desc": null,
        "stop_id": 70225,
        "stop_lat": 41.927942,
        "stop_lon": 12.478777,
        "stop_name": "GUIDUBALDO DEL MONTE",
        "stop_timezone": null,
        "stop_url": null,
        "wheelchair_boarding": null
    },
    {
        "location_type": null,
        "parent_station": null,
        "stop_code": 70226,
        "stop_desc": null,
        "stop_id": 70226,
        "stop_lat": 41.92754,
        "stop_lon": 12.481937,
        "stop_name": "STAZ.NE EUCLIDE",
        "stop_timezone": null,
        "stop_url": null,
        "wheelchair_boarding": null
    },
    {
        "location_type": null,
        "parent_station": null,
        "stop_code": 70227,
        "stop_desc": null,
        "stop_id": 70227,
        "stop_lat": 41.929602,
        "stop_lon": 12.484403,
        "stop_name": "PARIOLI/ACQUA ACETOSA",
        "stop_timezone": null,
        "stop_url": null,
        "wheelchair_boarding": null
    },
    {
        "location_type": null,
        "parent_station": null,
        "stop_code": 70228,
        "stop_desc": null,
        "stop_id": 70228,
        "stop_lat": 41.929057,
        "stop_lon": 12.485925,
        "stop_name": "PARIOLI/STUPARICH",
        "stop_timezone": null,
        "stop_url": null,
        "wheelchair_boarding": null
    },
    {
        "location_type": null,
        "parent_station": null,
        "stop_code": 70229,
        "stop_desc": null,
        "stop_id": 70229,
        "stop_lat": 41.926157,
        "stop_lon": 12.486402,
        "stop_name": "PARIOLI/SANTIAGO DEL CILE",
        "stop_timezone": null,
        "stop_url": null,
        "wheelchair_boarding": null
    },
    {
        "location_type": null,
        "parent_station": null,
        "stop_code": 70233,
        "stop_desc": null,
        "stop_id": 70233,
        "stop_lat": 41.918522,
        "stop_lon": 12.490943,
        "stop_name": "BIOPARCO/MERCADANTE",
        "stop_timezone": null,
        "stop_url": null,
        "wheelchair_boarding": null
    },
    {
        "location_type": null,
        "parent_station": null,
        "stop_code": 70234,
        "stop_desc": null,
        "stop_id": 70234,
        "stop_lat": 41.81885,
        "stop_lon": 12.446172,
        "stop_name": "DECIMA/PIANETA TERRA",
        "stop_timezone": null,
        "stop_url": null,
        "wheelchair_boarding": null
    },
    {
        "location_type": null,
        "parent_station": null,
        "stop_code": 70235,
        "stop_desc": null,
        "stop_id": 70235,
        "stop_lat": 41.91636,
        "stop_lon": 12.49539,
        "stop_name": "TARTINI",
        "stop_timezone": null,
        "stop_url": null,
        "wheelchair_boarding": null
    },
    {
        "location_type": null,
        "parent_station": null,
        "stop_code": 70237,
        "stop_desc": null,
        "stop_id": 70237,
        "stop_lat": 41.911855,
        "stop_lon": 12.497858,
        "stop_name": "SALARIA/ANIENE",
        "stop_timezone": null,
        "stop_url": null,
        "wheelchair_boarding": null
    },
    {
        "location_type": null,
        "parent_station": null,
        "stop_code": 70238,
        "stop_desc": null,
        "stop_id": 70238,
        "stop_lat": 41.907712,
        "stop_lon": 12.498688,
        "stop_name": "PIAVE/XX SETTEMBRE",
        "stop_timezone": null,
        "stop_url": null,
        "wheelchair_boarding": null
    },
    {
        "location_type": null,
        "parent_station": null,
        "stop_code": 70239,
        "stop_desc": null,
        "stop_id": 70239,
        "stop_lat": 41.904708,
        "stop_lon": 12.501943,
        "stop_name": "INDIPENDENZA",
        "stop_timezone": null,
        "stop_url": null,
        "wheelchair_boarding": null
    },
    {
        "location_type": null,
        "parent_station": null,
        "stop_code": 70240,
        "stop_desc": null,
        "stop_id": 70240,
        "stop_lat": 41.901,
        "stop_lon": 12.499733,
        "stop_name": "TERMINI (MA-MB-FS)",
        "stop_timezone": null,
        "stop_url": null,
        "wheelchair_boarding": null
    },
    {
        "location_type": null,
        "parent_station": null,
        "stop_code": 70243,
        "stop_desc": null,
        "stop_id": 70243,
        "stop_lat": 41.89697,
        "stop_lon": 12.498203,
        "stop_name": "S. MARIA MAGGIORE",
        "stop_timezone": null,
        "stop_url": null,
        "wheelchair_boarding": null
    },
    {
        "location_type": null,
        "parent_station": null,
        "stop_code": 70245,
        "stop_desc": null,
        "stop_id": 70245,
        "stop_lat": 41.894072,
        "stop_lon": 12.503522,
        "stop_name": "P.ZA VITTORIO EMANUELE (MA)",
        "stop_timezone": null,
        "stop_url": null,
        "wheelchair_boarding": null
    },
    {
        "location_type": null,
        "parent_station": null,
        "stop_code": 70246,
        "stop_desc": null,
        "stop_id": 70246,
        "stop_lat": 41.893445,
        "stop_lon": 12.50618,
        "stop_name": "CONTE VERDE/P.ZA VITTORIO EMANUELE",
        "stop_timezone": null,
        "stop_url": null,
        "wheelchair_boarding": null
    },
    {
        "location_type": null,
        "parent_station": null,
        "stop_code": 70247,
        "stop_desc": null,
        "stop_id": 70247,
        "stop_lat": 41.891755,
        "stop_lon": 12.509217,
        "stop_name": "VIA S. CROCE IN GERUSALEMME/MANZONI",
        "stop_timezone": null,
        "stop_url": null,
        "wheelchair_boarding": null
    },
    {
        "location_type": null,
        "parent_station": null,
        "stop_code": 70248,
        "stop_desc": null,
        "stop_id": 70248,
        "stop_lat": 41.890077,
        "stop_lon": 12.512252,
        "stop_name": "VIA S. CROCE IN GERUSALEMME/STATILIA",
        "stop_timezone": null,
        "stop_url": null,
        "wheelchair_boarding": null
    },